{"latlong_data":[
	{
		"Station": "Abbey Wood",
		"OS X": "547297",
		"OS Y": "179002",
		"lat": "51.49078408041",
		"long": "0.12028637127604",
		"Zone": "4"
	},
	{
		"Station": "Acton",
		"OS X": "520296",
		"OS Y": "181196",
		"lat": "51.516886963398",
		"long": "-0.26767554257793",
		"Zone": "3"
	},
	{
		"Station": "Acton Central",
		"OS X": "520613",
		"OS Y": "180299",
		"lat": "51.508757812012",
		"long": "-0.26341579231596",
		"Zone": "2"
	},
	{
		"Station": "Acton Town",
		"OS X": "519457",
		"OS Y": "179639",
		"lat": "51.503071476856",
		"long": "-0.2802882961706",
		"Zone": "3"
	},
	{
		"Station": "Albany Park",
		"OS X": "547903",
		"OS Y": "172902",
		"lat": "51.435815590189",
		"long": "0.12645902197803",
		"Zone": "5"
	},
	{
		"Station": "Aldgate",
		"OS X": "533629",
		"OS Y": "181246",
		"lat": "51.514342387502",
		"long": "-0.075612503707184",
		"Zone": "1"
	},
	{
		"Station": "Aldgate East",
		"OS X": "533809",
		"OS Y": "181333",
		"lat": "51.515081631079",
		"long": "-0.072987053548915",
		"Zone": "1"
	},
	{
		"Station": "Alexandra Palace",
		"OS X": "530300",
		"OS Y": "190498",
		"lat": "51.598262836895",
		"long": "-0.1201345367387",
		"Zone": "3"
	},
	{
		"Station": "All Saints",
		"OS X": "538012",
		"OS Y": "180933",
		"lat": "51.510476925464",
		"long": "-0.012610477634",
		"Zone": "2"
	},
	{
		"Station": "Alperton",
		"OS X": "518025",
		"OS Y": "183849",
		"lat": "51.541209310632",
		"long": "-0.2995013414547",
		"Zone": "4"
	},
	{
		"Station": "Amersham",
		"OS X": "496454",
		"OS Y": "198181",
		"lat": "51.674129392062",
		"long": "-0.60649933056891",
		"Zone": "9"
	},
	{
		"Station": "Anerley",
		"OS X": "534656",
		"OS Y": "169942",
		"lat": "51.412516725364",
		"long": "-0.065122723194277",
		"Zone": "4"
	},
	{
		"Station": "Angel",
		"OS X": "531497",
		"OS Y": "183263",
		"lat": "51.532968028132",
		"long": "-0.10556703413728",
		"Zone": "1"
	},
	{
		"Station": "Angel Road",
		"OS X": "535204",
		"OS Y": "192202",
		"lat": "51.612420325055",
		"long": "-0.048718479404686",
		"Zone": "4"
	},
	{
		"Station": "Archway",
		"OS X": "529356",
		"OS Y": "186827",
		"lat": "51.565490550156",
		"long": "-0.13510715160572",
		"Zone": "2/3"
	},
	{
		"Station": "Arnos Grove",
		"OS X": "529271",
		"OS Y": "192471",
		"lat": "51.616230157665",
		"long": "-0.13425577761924",
		"Zone": "4"
	},
	{
		"Station": "Arsenal",
		"OS X": "531429",
		"OS Y": "186107",
		"lat": "51.558541388156",
		"long": "-0.10548551071377",
		"Zone": "2"
	},
	{
		"Station": "Baker Street",
		"OS X": "527965",
		"OS Y": "182078",
		"lat": "51.523129639184",
		"long": "-0.15688978273689",
		"Zone": "1"
	},
	{
		"Station": "Balham",
		"OS X": "528482",
		"OS Y": "173195",
		"lat": "51.443182580239",
		"long": "-0.15267077683302",
		"Zone": "3"
	},
	{
		"Station": "Bank",
		"OS X": "532704",
		"OS Y": "181111",
		"lat": "51.513347072699",
		"long": "-0.088985715325045",
		"Zone": "1"
	},
	{
		"Station": "Banstead",
		"OS X": "524590",
		"OS Y": "160426",
		"lat": "51.329293148535",
		"long": "-0.21311798536959",
		"Zone": "6"
	},
	{
		"Station": "Barbican",
		"OS X": "532079",
		"OS Y": "181859",
		"lat": "51.520215295016",
		"long": "-0.097707167852645",
		"Zone": "1"
	},
	{
		"Station": "Barking",
		"OS X": "544405",
		"OS Y": "184343",
		"lat": "51.539521102884",
		"long": "0.0808460268962",
		"Zone": "4"
	},
	{
		"Station": "Barkingside",
		"OS X": "544788",
		"OS Y": "189510",
		"lat": "51.585850602534",
		"long": "0.088491071171579",
		"Zone": "4"
	},
	{
		"Station": "Barnehurst",
		"OS X": "550206",
		"OS Y": "176193",
		"lat": "51.464780266606",
		"long": "0.16096241569889",
		"Zone": "6"
	},
	{
		"Station": "Barnes",
		"OS X": "522209",
		"OS Y": "175705",
		"lat": "51.467127801887",
		"long": "-0.24201866806989",
		"Zone": "3"
	},
	{
		"Station": "Barnes Bridge",
		"OS X": "521478",
		"OS Y": "176255",
		"lat": "51.472228083132",
		"long": "-0.25234822148068",
		"Zone": "3"
	},
	{
		"Station": "Barons Court",
		"OS X": "524133",
		"OS Y": "178322",
		"lat": "51.490228707652",
		"long": "-0.21341574380466",
		"Zone": "2"
	},
	{
		"Station": "Battersea Park",
		"OS X": "528703",
		"OS Y": "176999",
		"lat": "51.477318340776",
		"long": "-0.14810936441775",
		"Zone": "2"
	},
	{
		"Station": "Bayswater",
		"OS X": "525845",
		"OS Y": "180799",
		"lat": "51.512111310915",
		"long": "-0.18788716574986",
		"Zone": "1"
	},
	{
		"Station": "Beckenham Hill",
		"OS X": "538002",
		"OS Y": "171379",
		"lat": "51.424626059454",
		"long": "-0.016481381251057",
		"Zone": "4"
	},
	{
		"Station": "Beckenham Junction",
		"OS X": "537403",
		"OS Y": "169840",
		"lat": "51.410941644002",
		"long": "-0.025687362710869",
		"Zone": "4"
	},
	{
		"Station": "Beckton",
		"OS X": "543145",
		"OS Y": "181509",
		"lat": "51.514376621471",
		"long": "0.061539705886513",
		"Zone": "3"
	},
	{
		"Station": "Beckton Park",
		"OS X": "542697",
		"OS Y": "180887",
		"lat": "51.508900786453",
		"long": "0.054836346093653",
		"Zone": "3"
	},
	{
		"Station": "Becontree",
		"OS X": "547598",
		"OS Y": "184442",
		"lat": "51.539585393148",
		"long": "0.12689470862039",
		"Zone": "5"
	},
	{
		"Station": "Bellingham",
		"OS X": "537702",
		"OS Y": "172399",
		"lat": "51.433864895434",
		"long": "-0.020397386684838",
		"Zone": "3"
	},
	{
		"Station": "Belmont",
		"OS X": "525500",
		"OS Y": "162098",
		"lat": "51.344119948481",
		"long": "-0.19947489773285",
		"Zone": "5"
	},
	{
		"Station": "Belsize Park",
		"OS X": "527399",
		"OS Y": "185075",
		"lat": "51.550190897304",
		"long": "-0.1639600723677",
		"Zone": "2"
	},
	{
		"Station": "Belvedere",
		"OS X": "549498",
		"OS Y": "179197",
		"lat": "51.491958983909",
		"long": "0.15204819376851",
		"Zone": "5"
	},
	{
		"Station": "Bermondsey",
		"OS X": "534461",
		"OS Y": "179445",
		"lat": "51.497960787629",
		"long": "-0.064315686265478",
		"Zone": "2"
	},
	{
		"Station": "Berrylands",
		"OS X": "519728",
		"OS Y": "168040",
		"lat": "51.398768439892",
		"long": "-0.28030710499701",
		"Zone": "5"
	},
	{
		"Station": "Bethnal Green",
		"OS X": "534995",
		"OS Y": "182712",
		"lat": "51.527191747482",
		"long": "-0.055377698622437",
		"Zone": "2"
	},
	{
		"Station": "Bethnal Green Rail",
		"OS X": "534683",
		"OS Y": "182380",
		"lat": "51.524282746211",
		"long": "-0.059999330521283",
		"Zone": "2"
	},
	{
		"Station": "Bexley",
		"OS X": "549399",
		"OS Y": "173502",
		"lat": "51.440814511828",
		"long": "0.14821829873454",
		"Zone": "6"
	},
	{
		"Station": "Bexleyheath",
		"OS X": "548294",
		"OS Y": "176000",
		"lat": "51.463549940694",
		"long": "0.13337735793409",
		"Zone": "5"
	},
	{
		"Station": "Bickley",
		"OS X": "542304",
		"OS Y": "168799",
		"lat": "51.400379563229",
		"long": "0.044318404705676",
		"Zone": "5"
	},
	{
		"Station": "Birkbeck",
		"OS X": "535297",
		"OS Y": "168996",
		"lat": "51.403863100681",
		"long": "-0.0562718615037",
		"Zone": "4"
	},
	{
		"Station": "Blackfriars",
		"OS X": "531738",
		"OS Y": "180890",
		"lat": "51.511586939902",
		"long": "-0.10298097717171",
		"Zone": "1"
	},
	{
		"Station": "Blackheath",
		"OS X": "539604",
		"OS Y": "175961",
		"lat": "51.465408009363",
		"long": "0.0083509882498168",
		"Zone": "3"
	},
	{
		"Station": "Blackhorse Road",
		"OS X": "535914",
		"OS Y": "189256",
		"lat": "51.585776631411",
		"long": "-0.039611280026926",
		"Zone": "3"
	},
	{
		"Station": "Blackwall",
		"OS X": "538394",
		"OS Y": "180649",
		"lat": "51.507831540895",
		"long": "-0.0072207589795153",
		"Zone": "2"
	},
	{
		"Station": "Bond Street",
		"OS X": "528497",
		"OS Y": "181053",
		"lat": "51.513797542631",
		"long": "-0.14959920109132",
		"Zone": "1"
	},
	{
		"Station": "Borough",
		"OS X": "532379",
		"OS Y": "179734",
		"lat": "51.501048880447",
		"long": "-0.094182918403389",
		"Zone": "1"
	},
	{
		"Station": "Boston Manor",
		"OS X": "516391",
		"OS Y": "178755",
		"lat": "51.495765574642",
		"long": "-0.32473278589022",
		"Zone": "4"
	},
	{
		"Station": "Bounds Green",
		"OS X": "529996",
		"OS Y": "191466",
		"lat": "51.607031935983",
		"long": "-0.12416262739225",
		"Zone": "3/4"
	},
	{
		"Station": "Bow Church",
		"OS X": "537414",
		"OS Y": "182824",
		"lat": "51.527615205643",
		"long": "-0.020485486059214",
		"Zone": "2"
	},
	{
		"Station": "Bow Road",
		"OS X": "537148",
		"OS Y": "182753",
		"lat": "51.527041809222",
		"long": "-0.024345177705763",
		"Zone": "2"
	},
	{
		"Station": "Bowes Park",
		"OS X": "530299",
		"OS Y": "191498",
		"lat": "51.607249528898",
		"long": "-0.11977778086817",
		"Zone": "3,4"
	},
	{
		"Station": "Brent Cross",
		"OS X": "523905",
		"OS Y": "187927",
		"lat": "51.576599240756",
		"long": "-0.21332141198154",
		"Zone": "3"
	},
	{
		"Station": "Brentford",
		"OS X": "517462",
		"OS Y": "177864",
		"lat": "51.487536344613",
		"long": "-0.30960813639036",
		"Zone": "4"
	},
	{
		"Station": "Brimsdown",
		"OS X": "536297",
		"OS Y": "196997",
		"lat": "51.655244617739",
		"long": "-0.03107782337368",
		"Zone": "5"
	},
	{
		"Station": "Brixton",
		"OS X": "531076",
		"OS Y": "175437",
		"lat": "51.462736815606",
		"long": "-0.11453770490964",
		"Zone": "2"
	},
	{
		"Station": "Brockley",
		"OS X": "536405",
		"OS Y": "175801",
		"lat": "51.464749666688",
		"long": "-0.03773385721419",
		"Zone": "2"
	},
	{
		"Station": "Bromley North",
		"OS X": "540395",
		"OS Y": "169699",
		"lat": "51.408942308516",
		"long": "0.017249827752461",
		"Zone": "4"
	},
	{
		"Station": "Bromley South",
		"OS X": "540431",
		"OS Y": "168705",
		"lat": "51.400001286054",
		"long": "0.017373953488859",
		"Zone": "5"
	},
	{
		"Station": "Bromley-by-Bow",
		"OS X": "538034",
		"OS Y": "182532",
		"lat": "51.52484020109",
		"long": "-0.01166796209473",
		"Zone": "2,3"
	},
	{
		"Station": "Brondesbury",
		"OS X": "524718",
		"OS Y": "184460",
		"lat": "51.545262386773",
		"long": "-0.20282406710345",
		"Zone": "2"
	},
	{
		"Station": "Brondesbury Park",
		"OS X": "524202",
		"OS Y": "183898",
		"lat": "51.540325391085",
		"long": "-0.21045952961905",
		"Zone": "2"
	},
	{
		"Station": "Bruce Grove",
		"OS X": "533758",
		"OS Y": "190115",
		"lat": "51.594011254361",
		"long": "-0.070384555517657",
		"Zone": "3"
	},
	{
		"Station": "Buckhurst Hill",
		"OS X": "541768",
		"OS Y": "193957",
		"lat": "51.626576654655",
		"long": "0.046726985755",
		"Zone": "5"
	},
	{
		"Station": "Burnt Oak",
		"OS X": "520303",
		"OS Y": "190728",
		"lat": "51.602551943784",
		"long": "-0.26431627556888",
		"Zone": "4"
	},
	{
		"Station": "Bush Hill Park",
		"OS X": "533696",
		"OS Y": "195396",
		"lat": "51.641481967261",
		"long": "-0.069265963311165",
		"Zone": "5"
	},
	{
		"Station": "Caledonian Road",
		"OS X": "530568",
		"OS Y": "184899",
		"lat": "51.547885455043",
		"long": "-0.11834644235876",
		"Zone": "2"
	},
	{
		"Station": "Caledonian Road & Barnsbury",
		"OS X": "530800",
		"OS Y": "184393",
		"lat": "51.543284589046",
		"long": "-0.11519043865212",
		"Zone": "2"
	},
	{
		"Station": "Cambridge Heath",
		"OS X": "534855",
		"OS Y": "183250",
		"lat": "51.532059770708",
		"long": "-0.05718878628523",
		"Zone": "2"
	},
	{
		"Station": "Camden Road",
		"OS X": "529140",
		"OS Y": "184191",
		"lat": "51.541851250779",
		"long": "-0.13918869492503",
		"Zone": "2"
	},
	{
		"Station": "Camden Town",
		"OS X": "528920",
		"OS Y": "183976",
		"lat": "51.539969369251",
		"long": "-0.14243796405007",
		"Zone": "2"
	},
	{
		"Station": "Canada Water",
		"OS X": "535399",
		"OS Y": "179493",
		"lat": "51.498168417556",
		"long": "-0.05079271714472",
		"Zone": "2"
	},
	{
		"Station": "Canary Wharf",
		"OS X": "537558",
		"OS Y": "180153",
		"lat": "51.503578406232",
		"long": "-0.019452434600173",
		"Zone": "2"
	},
	{
		"Station": "Canning Town",
		"OS X": "539454",
		"OS Y": "181350",
		"lat": "51.513870285695",
		"long": "0.0083200415480822",
		"Zone": "3"
	},
	{
		"Station": "Cannon Street",
		"OS X": "532623",
		"OS Y": "180888",
		"lat": "51.511362099463",
		"long": "-0.090236118885105",
		"Zone": "1"
	},
	{
		"Station": "Canonbury",
		"OS X": "532355",
		"OS Y": "184979",
		"lat": "51.548188396024",
		"long": "-0.092559776199295",
		"Zone": "2"
	},
	{
		"Station": "Canons Park",
		"OS X": "518208",
		"OS Y": "191246",
		"lat": "51.607650605221",
		"long": "-0.29437715826231",
		"Zone": "5"
	},
	{
		"Station": "Carpenders Park",
		"OS X": "511826",
		"OS Y": "193386",
		"lat": "51.628186764519",
		"long": "-0.38581487914664",
		"Zone": "7"
	},
	{
		"Station": "Carshalton",
		"OS X": "527737",
		"OS Y": "164858",
		"lat": "51.368426385593",
		"long": "-0.16638396492825",
		"Zone": "5"
	},
	{
		"Station": "Carshalton Beeches",
		"OS X": "527552",
		"OS Y": "163625",
		"lat": "51.357386860957",
		"long": "-0.16948196651609",
		"Zone": "5"
	},
	{
		"Station": "Castle Bar Park",
		"OS X": "515853",
		"OS Y": "181770",
		"lat": "51.522973705473",
		"long": "-0.33148966489625",
		"Zone": "4"
	},
	{
		"Station": "Catford",
		"OS X": "537245",
		"OS Y": "173544",
		"lat": "51.44426491475",
		"long": "-0.026524111698793",
		"Zone": "3"
	},
	{
		"Station": "Catford Bridge",
		"OS X": "537363",
		"OS Y": "173595",
		"lat": "51.444694627575",
		"long": "-0.024807488912048",
		"Zone": "3"
	},
	{
		"Station": "Chadwell Heath",
		"OS X": "547646",
		"OS Y": "187611",
		"lat": "51.568046861857",
		"long": "0.12891553745986",
		"Zone": "5"
	},
	{
		"Station": "Chalfont & Latimer",
		"OS X": "499610",
		"OS Y": "197550",
		"lat": "51.667907547721",
		"long": "-0.56105332039672",
		"Zone": "8"
	},
	{
		"Station": "Chalk Farm",
		"OS X": "528126",
		"OS Y": "184421",
		"lat": "51.544149104848",
		"long": "-0.15371865256093",
		"Zone": "2"
	},
	{
		"Station": "Chancery Lane",
		"OS X": "531096",
		"OS Y": "181642",
		"lat": "51.518494029809",
		"long": "-0.11194761724718",
		"Zone": "1"
	},
	{
		"Station": "Charing Cross",
		"OS X": "530234",
		"OS Y": "180492",
		"lat": "51.508358644804",
		"long": "-0.12478853109718",
		"Zone": "1"
	},
	{
		"Station": "Charlton",
		"OS X": "541108",
		"OS Y": "178387",
		"lat": "51.486834983914",
		"long": "0.030956045084626",
		"Zone": "3"
	},
	{
		"Station": "Cheam",
		"OS X": "524444",
		"OS Y": "163334",
		"lat": "51.355460268652",
		"long": "-0.21419692461334",
		"Zone": "5"
	},
	{
		"Station": "Chelsfield",
		"OS X": "546944",
		"OS Y": "164021",
		"lat": "51.35626456871",
		"long": "0.10899847900884",
		"Zone": "6"
	},
	{
		"Station": "Chesham",
		"OS X": "496048",
		"OS Y": "201650",
		"lat": "51.705380095434",
		"long": "-0.61141518839627",
		"Zone": "9"
	},
	{
		"Station": "Chessington North",
		"OS X": "518415",
		"OS Y": "164168",
		"lat": "51.364243478778",
		"long": "-0.30046176722378",
		"Zone": "6"
	},
	{
		"Station": "Chessington South",
		"OS X": "517974",
		"OS Y": "163319",
		"lat": "51.356704567744",
		"long": "-0.30707466141954",
		"Zone": "6"
	},
	{
		"Station": "Chigwell",
		"OS X": "543835",
		"OS Y": "193045",
		"lat": "51.617857862487",
		"long": "0.076193656688014",
		"Zone": "4"
	},
	{
		"Station": "Chislehurst",
		"OS X": "543205",
		"OS Y": "169405",
		"lat": "51.40559840083",
		"long": "0.057506196205783",
		"Zone": "5"
	},
	{
		"Station": "Chiswick",
		"OS X": "520438",
		"OS Y": "177182",
		"lat": "51.480781526773",
		"long": "-0.2669989236265",
		"Zone": "3"
	},
	{
		"Station": "Chiswick Park",
		"OS X": "520352",
		"OS Y": "178692",
		"lat": "51.494370746332",
		"long": "-0.26772251965492",
		"Zone": "3"
	},
	{
		"Station": "Chorleywood",
		"OS X": "502596",
		"OS Y": "196092",
		"lat": "51.654265989674",
		"long": "-0.51831947385278",
		"Zone": "7"
	},
	{
		"Station": "City Thameslink",
		"OS X": "531688",
		"OS Y": "181150",
		"lat": "51.513935079961",
		"long": "-0.10360404036727",
		"Zone": "1"
	},
	{
		"Station": "Clapham Common",
		"OS X": "529428",
		"OS Y": "175291",
		"lat": "51.4618036863",
		"long": "-0.13830051012379",
		"Zone": "2"
	},
	{
		"Station": "Clapham High Street",
		"OS X": "529824",
		"OS Y": "175709",
		"lat": "51.465469529402",
		"long": "-0.13245010905033",
		"Zone": "2"
	},
	{
		"Station": "Clapham Junction",
		"OS X": "527198",
		"OS Y": "175520",
		"lat": "51.464366804651",
		"long": "-0.17030060907001",
		"Zone": "2"
	},
	{
		"Station": "Clapham North",
		"OS X": "530003",
		"OS Y": "175652",
		"lat": "51.464916230409",
		"long": "-0.12989566953588",
		"Zone": "2"
	},
	{
		"Station": "Clapham South",
		"OS X": "528782",
		"OS Y": "174259",
		"lat": "51.452676506748",
		"long": "-0.1479696801021",
		"Zone": "2,3"
	},
	{
		"Station": "Clapton",
		"OS X": "534748",
		"OS Y": "186531",
		"lat": "51.561569094453",
		"long": "-0.057475034590784",
		"Zone": "2"
	},
	{
		"Station": "Clock House",
		"OS X": "536367",
		"OS Y": "169545",
		"lat": "51.408540565451",
		"long": "-0.040687716905021",
		"Zone": "4"
	},
	{
		"Station": "Cobham & Stoke D'Abernon",
		"OS X": "512362",
		"OS Y": "158925",
		"lat": "51.31834723919",
		"long": "-0.38902199845314",
		"Zone": ""
	},
	{
		"Station": "Cockfosters",
		"OS X": "528087",
		"OS Y": "196424",
		"lat": "51.652024496788",
		"long": "-0.14990225857042",
		"Zone": "5"
	},
	{
		"Station": "Colindale",
		"OS X": "521295",
		"OS Y": "189937",
		"lat": "51.595230546294",
		"long": "-0.25027310932225",
		"Zone": "4"
	},
	{
		"Station": "Colliers Wood",
		"OS X": "526831",
		"OS Y": "170436",
		"lat": "51.418759208995",
		"long": "-0.17740072104762",
		"Zone": "3"
	},
	{
		"Station": "Coulsdon South",
		"OS X": "529869",
		"OS Y": "159056",
		"lat": "51.315800960535",
		"long": "-0.1378887436247",
		"Zone": "6"
	},
	{
		"Station": "Covent Garden",
		"OS X": "530242",
		"OS Y": "180982",
		"lat": "51.512760249622",
		"long": "-0.1244924862088",
		"Zone": "1"
	},
	{
		"Station": "Crayford",
		"OS X": "551479",
		"OS Y": "174424",
		"lat": "51.448546734577",
		"long": "0.17851710444575",
		"Zone": "6"
	},
	{
		"Station": "Crews Hill",
		"OS X": "530973",
		"OS Y": "200109",
		"lat": "51.684474623566",
		"long": "-0.10682963790553",
		"Zone": "6"
	},
	{
		"Station": "Crofton Park",
		"OS X": "536517",
		"OS Y": "174739",
		"lat": "51.455179296249",
		"long": "-0.036532191514461",
		"Zone": "3"
	},
	{
		"Station": "Crossharbour & London Arena",
		"OS X": "537896",
		"OS Y": "179301",
		"lat": "51.495839980525",
		"long": "-0.014918409980624",
		"Zone": "2"
	},
	{
		"Station": "Crouch Hill",
		"OS X": "530586",
		"OS Y": "187508",
		"lat": "51.571327111387",
		"long": "-0.11711885796196",
		"Zone": "3"
	},
	{
		"Station": "Croxley",
		"OS X": "507921",
		"OS Y": "195395",
		"lat": "51.647005333911",
		"long": "-0.44158934771671",
		"Zone": "7"
	},
	{
		"Station": "Crystal Palace",
		"OS X": "534120",
		"OS Y": "170557",
		"lat": "51.418170359941",
		"long": "-0.072592854062748",
		"Zone": "3/4"
	},
	{
		"Station": "Custom House",
		"OS X": "540679",
		"OS Y": "180911",
		"lat": "51.509622053058",
		"long": "0.025786917726712",
		"Zone": "3"
	},
	{
		"Station": "Cutty Sark for Maritime Greenwich",
		"OS X": "538240",
		"OS Y": "177764",
		"lat": "51.481944468688",
		"long": "-0.01056746798363",
		"Zone": "2"
	},
	{
		"Station": "Cyprus",
		"OS X": "543324",
		"OS Y": "180863",
		"lat": "51.508526572883",
		"long": "0.063855162939039",
		"Zone": "3"
	},
	{
		"Station": "Dagenham Dock",
		"OS X": "548900",
		"OS Y": "183000",
		"lat": "51.526287178504",
		"long": "0.14504542671488",
		"Zone": "5"
	},
	{
		"Station": "Dagenham East",
		"OS X": "550284",
		"OS Y": "185033",
		"lat": "51.544187318113",
		"long": "0.16584784999223",
		"Zone": "5"
	},
	{
		"Station": "Dagenham Heathway",
		"OS X": "549035",
		"OS Y": "184665",
		"lat": "51.541211772284",
		"long": "0.14769413756505",
		"Zone": "5"
	},
	{
		"Station": "Dalston Kingsland",
		"OS X": "533487",
		"OS Y": "185062",
		"lat": "51.548667827094",
		"long": "-0.076212502172009",
		"Zone": "2"
	},
	{
		"Station": "Dartford",
		"OS X": "554233",
		"OS Y": "174379",
		"lat": "51.447399615703",
		"long": "0.21809793611023",
		"Zone": ""
	},
	{
		"Station": "Debden",
		"OS X": "544275",
		"OS Y": "196133",
		"lat": "51.645491990883",
		"long": "0.083815925291538",
		"Zone": "6"
	},
	{
		"Station": "Denmark Hill",
		"OS X": "532697",
		"OS Y": "176087",
		"lat": "51.468200650033",
		"long": "-0.090973475173744",
		"Zone": "2"
	},
	{
		"Station": "Deptford",
		"OS X": "537165",
		"OS Y": "177395",
		"lat": "51.478890086282",
		"long": "-0.026181921788286",
		"Zone": "2"
	},
	{
		"Station": "Deptford Bridge",
		"OS X": "537466",
		"OS Y": "176912",
		"lat": "51.474476774061",
		"long": "-0.022038032405853",
		"Zone": "2/3"
	},
	{
		"Station": "Devons Road",
		"OS X": "537603",
		"OS Y": "182233",
		"lat": "51.522258469272",
		"long": "-0.017993342742124",
		"Zone": "2"
	},
	{
		"Station": "Dollis Hill",
		"OS X": "522207",
		"OS Y": "185132",
		"lat": "51.551850619529",
		"long": "-0.23878334100376",
		"Zone": "3"
	},
	{
		"Station": "Drayton Green",
		"OS X": "516002",
		"OS Y": "180998",
		"lat": "51.516004715297",
		"long": "-0.32959685045955",
		"Zone": "4"
	},
	{
		"Station": "Drayton Park",
		"OS X": "531426",
		"OS Y": "185499",
		"lat": "51.553078319423",
		"long": "-0.10575577858654",
		"Zone": "2"
	},
	{
		"Station": "Ealing Broadway",
		"OS X": "517920",
		"OS Y": "180915",
		"lat": "51.51486201146",
		"long": "-0.30199597251937",
		"Zone": "3"
	},
	{
		"Station": "Ealing Common",
		"OS X": "518963",
		"OS Y": "180426",
		"lat": "51.510248690463",
		"long": "-0.28713701041592",
		"Zone": "3"
	},
	{
		"Station": "Earls Court",
		"OS X": "525457",
		"OS Y": "178480",
		"lat": "51.491356695274",
		"long": "-0.19429940765557",
		"Zone": "1,2"
	},
	{
		"Station": "Earlsfield",
		"OS X": "526081",
		"OS Y": "173030",
		"lat": "51.442238829835",
		"long": "-0.18725830238926",
		"Zone": "3"
	},
	{
		"Station": "East Acton",
		"OS X": "521656",
		"OS Y": "181159",
		"lat": "51.516263444214",
		"long": "-0.2480978154307",
		"Zone": "2"
	},
	{
		"Station": "East Croydon",
		"OS X": "532904",
		"OS Y": "165801",
		"lat": "51.37571611266",
		"long": "-0.091849130629116",
		"Zone": "5"
	},
	{
		"Station": "East Dulwich",
		"OS X": "533449",
		"OS Y": "175375",
		"lat": "51.461625592168",
		"long": "-0.080422179162408",
		"Zone": "2"
	},
	{
		"Station": "East Finchley",
		"OS X": "527242",
		"OS Y": "189204",
		"lat": "51.587332564437",
		"long": "-0.16472945405368",
		"Zone": "3"
	},
	{
		"Station": "East Ham",
		"OS X": "542373",
		"OS Y": "184255",
		"lat": "51.539246158049",
		"long": "0.051530710126145",
		"Zone": "3,4"
	},
	{
		"Station": "East India",
		"OS X": "538729",
		"OS Y": "180753",
		"lat": "51.508684006054",
		"long": "-0.0023559243798497",
		"Zone": "2,3"
	},
	{
		"Station": "East Putney",
		"OS X": "524387",
		"OS Y": "174840",
		"lat": "51.458879808899",
		"long": "-0.21098384278422",
		"Zone": "2,3"
	},
	{
		"Station": "Eastcote",
		"OS X": "511191",
		"OS Y": "187627",
		"lat": "51.576551871493",
		"long": "-0.39680887105797",
		"Zone": "5"
	},
	{
		"Station": "Eden Park",
		"OS X": "537396",
		"OS Y": "167598",
		"lat": "51.390796105685",
		"long": "-0.026655345425249",
		"Zone": "5"
	},
	{
		"Station": "Edgware",
		"OS X": "519527",
		"OS Y": "192009",
		"lat": "51.614229655466",
		"long": "-0.27507922607818",
		"Zone": "5"
	},
	{
		"Station": "Edgware Road (Bakerloo)",
		"OS X": "527026",
		"OS Y": "181778",
		"lat": "51.520645381678",
		"long": "-0.17052514070378",
		"Zone": "1"
	},
	{
		"Station": "Edgware Road (Circle/District/H&C)",
		"OS X": "527227",
		"OS Y": "181711",
		"lat": "51.51999806318",
		"long": "-0.1676538436008",
		"Zone": "1"
	},
	{
		"Station": "Edmonton Green",
		"OS X": "534273",
		"OS Y": "193590",
		"lat": "51.625115709648",
		"long": "-0.061624575457523",
		"Zone": "4"
	},
	{
		"Station": "Elephant & Castle",
		"OS X": "531940",
		"OS Y": "179144",
		"lat": "51.495849394281",
		"long": "-0.10072431173602",
		"Zone": "1,2"
	},
	{
		"Station": "Elm Park",
		"OS X": "552446",
		"OS Y": "185647",
		"lat": "51.549124559422",
		"long": "0.19726710182967",
		"Zone": "6"
	},
	{
		"Station": "Elmers End",
		"OS X": "535788",
		"OS Y": "168389",
		"lat": "51.398291114164",
		"long": "-0.049449459806297",
		"Zone": "4"
	},
	{
		"Station": "Elmstead Woods",
		"OS X": "542247",
		"OS Y": "170656",
		"lat": "51.417080625514",
		"long": "0.044243721084371",
		"Zone": "4"
	},
	{
		"Station": "Elstree & Borehamwood",
		"OS X": "519098",
		"OS Y": "196299",
		"lat": "51.652875609998",
		"long": "-0.27981416681958",
		"Zone": "6"
	},
	{
		"Station": "Eltham",
		"OS X": "542690",
		"OS Y": "174962",
		"lat": "51.455662213853",
		"long": "0.052343698204214",
		"Zone": "4"
	},
	{
		"Station": "Elverson Road",
		"OS X": "537848",
		"OS Y": "176243",
		"lat": "51.468372191483",
		"long": "-0.016801981736488",
		"Zone": "2,3"
	},
	{
		"Station": "Embankment",
		"OS X": "530406",
		"OS Y": "180380",
		"lat": "51.507312509276",
		"long": "-0.12235292981979",
		"Zone": "1"
	},
	{
		"Station": "Emerson Park",
		"OS X": "553971",
		"OS Y": "187918",
		"lat": "51.569114881318",
		"long": "0.22023736048149",
		"Zone": "6"
	},
	{
		"Station": "Enfield Chase",
		"OS X": "532181",
		"OS Y": "196607",
		"lat": "51.652722121848",
		"long": "-0.090689752730328",
		"Zone": "5"
	},
	{
		"Station": "Enfield Lock",
		"OS X": "536437",
		"OS Y": "198737",
		"lat": "51.670846125012",
		"long": "-0.02837661157186",
		"Zone": "6"
	},
	{
		"Station": "Enfield Town",
		"OS X": "532970",
		"OS Y": "196544",
		"lat": "51.651970081543",
		"long": "-0.079315469569566",
		"Zone": "5"
	},
	{
		"Station": "Epping",
		"OS X": "546197",
		"OS Y": "201552",
		"lat": "51.69368615157",
		"long": "0.11384001852178",
		"Zone": "6"
	},
	{
		"Station": "Epsom Downs",
		"OS X": "522805",
		"OS Y": "159756",
		"lat": "51.323659467583",
		"long": "-0.23895587775184",
		"Zone": "6"
	},
	{
		"Station": "Erith",
		"OS X": "551075",
		"OS Y": "178096",
		"lat": "51.481647653094",
		"long": "0.17427568781302",
		"Zone": "6"
	},
	{
		"Station": "Essex Road",
		"OS X": "532114",
		"OS Y": "184132",
		"lat": "51.540633322162",
		"long": "-0.096351108662094",
		"Zone": "2"
	},
	{
		"Station": "Euston",
		"OS X": "529587",
		"OS Y": "182735",
		"lat": "51.528664346375",
		"long": "-0.13328205840994",
		"Zone": "1"
	},
	{
		"Station": "Euston Square",
		"OS X": "529587",
		"OS Y": "182735",
		"lat": "51.528664346375",
		"long": "-0.13328205840994",
		"Zone": "1"
	},
	{
		"Station": "Ewell East",
		"OS X": "522571",
		"OS Y": "162152",
		"lat": "51.345243905271",
		"long": "-0.24148864560939",
		"Zone": "6"
	},
	{
		"Station": "Ewell West",
		"OS X": "521473",
		"OS Y": "162654",
		"lat": "51.349991173131",
		"long": "-0.25707477581385",
		"Zone": "6"
	},
	{
		"Station": "Fairlop",
		"OS X": "544902",
		"OS Y": "190655",
		"lat": "51.59610953153",
		"long": "0.090607714208087",
		"Zone": "4"
	},
	{
		"Station": "Falconwood",
		"OS X": "544498",
		"OS Y": "175394",
		"lat": "51.459085786225",
		"long": "0.078524084551238",
		"Zone": "4"
	},
	{
		"Station": "Farringdon",
		"OS X": "531585",
		"OS Y": "181844",
		"lat": "51.520195700647",
		"long": "-0.10482865117184",
		"Zone": "1"
	},
	{
		"Station": "Feltham",
		"OS X": "510601",
		"OS Y": "173298",
		"lat": "51.44787922275",
		"long": "-0.40981009327567",
		"Zone": "6"
	},
	{
		"Station": "Fenchurch Street",
		"OS X": "533434",
		"OS Y": "180932",
		"lat": "51.511566715013",
		"long": "-0.078539744740966",
		"Zone": "1"
	},
	{
		"Station": "Finchley Central",
		"OS X": "525232",
		"OS Y": "190664",
		"lat": "51.600903273752",
		"long": "-0.19320620063466",
		"Zone": "4"
	},
	{
		"Station": "Finchley Road",
		"OS X": "526293",
		"OS Y": "184703",
		"lat": "51.547096220268",
		"long": "-0.18003614128656",
		"Zone": "2"
	},
	{
		"Station": "Finchley Road & Frognal",
		"OS X": "526035",
		"OS Y": "185033",
		"lat": "51.550119520279",
		"long": "-0.18363678247277",
		"Zone": "2"
	},
	{
		"Station": "Finsbury Park",
		"OS X": "531385",
		"OS Y": "186784",
		"lat": "51.564635458062",
		"long": "-0.10586706135916",
		"Zone": "2"
	},
	{
		"Station": "Forest Gate",
		"OS X": "540447",
		"OS Y": "185322",
		"lat": "51.54931611531",
		"long": "0.024203511499168",
		"Zone": "3"
	},
	{
		"Station": "Forest Hill",
		"OS X": "535398",
		"OS Y": "172943",
		"lat": "51.439308318386",
		"long": "-0.053314119078799",
		"Zone": "3"
	},
	{
		"Station": "Fulham Broadway",
		"OS X": "525402",
		"OS Y": "177244",
		"lat": "51.480260927016",
		"long": "-0.19552976561085",
		"Zone": "2"
	},
	{
		"Station": "Fulwell",
		"OS X": "514832",
		"OS Y": "171841",
		"lat": "51.433942607741",
		"long": "-0.34942414136408",
		"Zone": "6"
	},
	{
		"Station": "Gallions Reach",
		"OS X": "543873",
		"OS Y": "180935",
		"lat": "51.509034130657",
		"long": "0.071789801687878",
		"Zone": "3"
	},
	{
		"Station": "Gants Hill",
		"OS X": "543266",
		"OS Y": "188432",
		"lat": "51.576552943422",
		"long": "0.066098526398209",
		"Zone": "4"
	},
	{
		"Station": "Gidea Park",
		"OS X": "552941",
		"OS Y": "189306",
		"lat": "51.581865720882",
		"long": "0.20599141081423",
		"Zone": "6"
	},
	{
		"Station": "Gipsy Hill",
		"OS X": "533321",
		"OS Y": "171237",
		"lat": "51.424469532451",
		"long": "-0.083820786846549",
		"Zone": "3"
	},
	{
		"Station": "Gloucester Road",
		"OS X": "526196",
		"OS Y": "178848",
		"lat": "51.494499579725",
		"long": "-0.18352915689619",
		"Zone": "1"
	},
	{
		"Station": "Golders Green",
		"OS X": "525199",
		"OS Y": "187471",
		"lat": "51.572215556655",
		"long": "-0.19482013198437",
		"Zone": "3"
	},
	{
		"Station": "Goldhawk Road",
		"OS X": "523131",
		"OS Y": "179616",
		"lat": "51.502076993967",
		"long": "-0.22738960127533",
		"Zone": "2"
	},
	{
		"Station": "Goodge Street",
		"OS X": "529505",
		"OS Y": "181837",
		"lat": "51.520613125487",
		"long": "-0.13479327927061",
		"Zone": "1"
	},
	{
		"Station": "Goodmayes",
		"OS X": "546462",
		"OS Y": "187369",
		"lat": "51.566180968146",
		"long": "0.11174407958328",
		"Zone": "4"
	},
	{
		"Station": "Gordon Hill",
		"OS X": "531889",
		"OS Y": "197799",
		"lat": "51.663502248565",
		"long": "-0.09445884360504",
		"Zone": "5"
	},
	{
		"Station": "Gospel Oak",
		"OS X": "528263",
		"OS Y": "185677",
		"lat": "51.555405311264",
		"long": "-0.15128661069808",
		"Zone": "2"
	},
	{
		"Station": "Grange Hill",
		"OS X": "544963",
		"OS Y": "192590",
		"lat": "51.613480413753",
		"long": "0.092286969949084",
		"Zone": "4"
	},
	{
		"Station": "Grange Park",
		"OS X": "531753",
		"OS Y": "195472",
		"lat": "51.642623088692",
		"long": "-0.09729997426098",
		"Zone": "5"
	},
	{
		"Station": "Great Portland Street",
		"OS X": "528861",
		"OS Y": "182174",
		"lat": "51.52378881305",
		"long": "-0.14394701338886",
		"Zone": "1"
	},
	{
		"Station": "Green Park",
		"OS X": "529012",
		"OS Y": "180283",
		"lat": "51.506760501463",
		"long": "-0.14246316907526",
		"Zone": "1"
	},
	{
		"Station": "Greenford",
		"OS X": "514808",
		"OS Y": "183861",
		"lat": "51.541980112836",
		"long": "-0.34586432267848",
		"Zone": "4"
	},
	{
		"Station": "Greenwich",
		"OS X": "537956",
		"OS Y": "177267",
		"lat": "51.477547665535",
		"long": "-0.014848686252722",
		"Zone": "2/3"
	},
	{
		"Station": "Grove Park",
		"OS X": "540702",
		"OS Y": "172099",
		"lat": "51.430432640396",
		"long": "0.022612884710894",
		"Zone": "4"
	},
	{
		"Station": "Gunnersbury",
		"OS X": "519843",
		"OS Y": "178401",
		"lat": "51.491863444709",
		"long": "-0.27514973411264",
		"Zone": "3"
	},
	{
		"Station": "Hackbridge",
		"OS X": "528582",
		"OS Y": "165929",
		"lat": "51.377860917901",
		"long": "-0.15386483218978",
		"Zone": "4"
	},
	{
		"Station": "Hackney Central",
		"OS X": "534922",
		"OS Y": "184943",
		"lat": "51.547257451286",
		"long": "-0.055575092639468",
		"Zone": "2"
	},
	{
		"Station": "Hackney Downs",
		"OS X": "534598",
		"OS Y": "185137",
		"lat": "51.549078092042",
		"long": "-0.060170685150219",
		"Zone": "2"
	},
	{
		"Station": "Hackney Wick",
		"OS X": "537036",
		"OS Y": "184588",
		"lat": "51.543558409072",
		"long": "-0.025245084630728",
		"Zone": "2"
	},
	{
		"Station": "Hadley Wood",
		"OS X": "526197",
		"OS Y": "198199",
		"lat": "51.668402892286",
		"long": "-0.17656673195017",
		"Zone": "6"
	},
	{
		"Station": "Hainault",
		"OS X": "545124",
		"OS Y": "191411",
		"lat": "51.602845314928",
		"long": "0.094122987217226",
		"Zone": "4"
	},
	{
		"Station": "Hammersmith (District)",
		"OS X": "523474",
		"OS Y": "178483",
		"lat": "51.491819802914",
		"long": "-0.22284652701972",
		"Zone": "2"
	},
	{
		"Station": "Hammersmith (Met.)",
		"OS X": "523346",
		"OS Y": "178665",
		"lat": "51.493483379174",
		"long": "-0.22462575515926",
		"Zone": "2"
	},
	{
		"Station": "Hampstead",
		"OS X": "526408",
		"OS Y": "185757",
		"lat": "51.556542616677",
		"long": "-0.17800013773286",
		"Zone": "2"
	},
	{
		"Station": "Hampstead Heath",
		"OS X": "527344",
		"OS Y": "185631",
		"lat": "51.555199944256",
		"long": "-0.16455176144825",
		"Zone": "3"
	},
	{
		"Station": "Hampton",
		"OS X": "513299",
		"OS Y": "169797",
		"lat": "51.415879597557",
		"long": "-0.37212087604547",
		"Zone": "6"
	},
	{
		"Station": "Hampton Court",
		"OS X": "515376",
		"OS Y": "168332",
		"lat": "51.40229391894",
		"long": "-0.34274277866957",
		"Zone": "6"
	},
	{
		"Station": "Hampton Wick",
		"OS X": "517407",
		"OS Y": "169752",
		"lat": "51.414640080192",
		"long": "-0.31308923226487",
		"Zone": "6"
	},
	{
		"Station": "Hanger Lane",
		"OS X": "518506",
		"OS Y": "182621",
		"lat": "51.530072069094",
		"long": "-0.29298173181915",
		"Zone": "3"
	},
	{
		"Station": "Hanwell",
		"OS X": "515426",
		"OS Y": "180560",
		"lat": "51.512185998837",
		"long": "-0.33803747641273",
		"Zone": "4"
	},
	{
		"Station": "Harlesden",
		"OS X": "520952",
		"OS Y": "183367",
		"lat": "51.536258358843",
		"long": "-0.25748125850322",
		"Zone": "3"
	},
	{
		"Station": "Harold Wood",
		"OS X": "554858",
		"OS Y": "190626",
		"lat": "51.593202188506",
		"long": "0.2342185071783",
		"Zone": "6"
	},
	{
		"Station": "Harringay",
		"OS X": "531395",
		"OS Y": "188200",
		"lat": "51.577357921799",
		"long": "-0.10519382370901",
		"Zone": "3"
	},
	{
		"Station": "Harringay Green Lanes",
		"OS X": "531880",
		"OS Y": "188189",
		"lat": "51.57714590447",
		"long": "-0.098202962998489",
		"Zone": "3"
	},
	{
		"Station": "Harrow & Wealdstone",
		"OS X": "515486",
		"OS Y": "189508",
		"lat": "51.592594673236",
		"long": "-0.33423825163137",
		"Zone": "5"
	},
	{
		"Station": "Harrow-on-the-Hill",
		"OS X": "515329",
		"OS Y": "188035",
		"lat": "51.579388159582",
		"long": "-0.33698708805734",
		"Zone": "5"
	},
	{
		"Station": "Hatch End",
		"OS X": "513024",
		"OS Y": "191370",
		"lat": "51.609828548789",
		"long": "-0.36916434211502",
		"Zone": "6"
	},
	{
		"Station": "Hatton Cross",
		"OS X": "509614",
		"OS Y": "175369",
		"lat": "51.466685355642",
		"long": "-0.42336616986103",
		"Zone": "5,6"
	},
	{
		"Station": "Haydons Road",
		"OS X": "526012",
		"OS Y": "171161",
		"lat": "51.425457340854",
		"long": "-0.18891497843117",
		"Zone": "3"
	},
	{
		"Station": "Hayes",
		"OS X": "540003",
		"OS Y": "165993",
		"lat": "51.37573670506",
		"long": "0.010157017878448",
		"Zone": "5"
	},
	{
		"Station": "Hayes and Harlington",
		"OS X": "509717",
		"OS Y": "179417",
		"lat": "51.50304912563",
		"long": "-0.42062749859031",
		"Zone": "5"
	},
	{
		"Station": "Headstone Lane",
		"OS X": "513892",
		"OS Y": "190574",
		"lat": "51.602499669538",
		"long": "-0.35689307782418",
		"Zone": "5"
	},
	{
		"Station": "Heathrow Terminal 4",
		"OS X": "507939",
		"OS Y": "174565",
		"lat": "51.45978048411",
		"long": "-0.44771519861354",
		"Zone": "6"
	},
	{
		"Station": "Heathrow Terminals 1 2 3",
		"OS X": "507587",
		"OS Y": "175838",
		"lat": "51.47128945567",
		"long": "-0.45239283063262",
		"Zone": "6"
	},
	{
		"Station": "Hendon Central",
		"OS X": "522959",
		"OS Y": "188631",
		"lat": "51.583133074092",
		"long": "-0.2267197095034",
		"Zone": "3,4"
	},
	{
		"Station": "Herne Hill",
		"OS X": "531934",
		"OS Y": "174486",
		"lat": "51.453991381788",
		"long": "-0.10254851838021",
		"Zone": "2/3"
	},
	{
		"Station": "Heron Quays",
		"OS X": "537386",
		"OS Y": "180127",
		"lat": "51.503386571015",
		"long": "-0.021939126563571",
		"Zone": "2"
	},
	{
		"Station": "High Barnet",
		"OS X": "525027",
		"OS Y": "196310",
		"lat": "51.651688276705",
		"long": "-0.19415092780429",
		"Zone": "5"
	},
	{
		"Station": "High Street Kensington",
		"OS X": "525622",
		"OS Y": "179527",
		"lat": "51.500729468384",
		"long": "-0.19155165303998",
		"Zone": "1"
	},
	{
		"Station": "Highams Park",
		"OS X": "538581",
		"OS Y": "191841",
		"lat": "51.608355993014",
		"long": "-0.00012084723573169",
		"Zone": "4"
	},
	{
		"Station": "Highbury & Islington",
		"OS X": "531562",
		"OS Y": "184770",
		"lat": "51.546495518926",
		"long": "-0.10406772078143",
		"Zone": "2"
	},
	{
		"Station": "Highgate",
		"OS X": "528503",
		"OS Y": "188158",
		"lat": "51.57764663481",
		"long": "-0.14692043327249",
		"Zone": "3"
	},
	{
		"Station": "Hillingdon",
		"OS X": "507567",
		"OS Y": "185015",
		"lat": "51.55377757066",
		"long": "-0.44988357245777",
		"Zone": "6"
	},
	{
		"Station": "Hither Green",
		"OS X": "538997",
		"OS Y": "174497",
		"lat": "51.452401721767",
		"long": "-0.00095652287067613",
		"Zone": "3"
	},
	{
		"Station": "Holborn",
		"OS X": "530553",
		"OS Y": "181488",
		"lat": "51.517235749261",
		"long": "-0.11982609759457",
		"Zone": "1"
	},
	{
		"Station": "Holland Park",
		"OS X": "524564",
		"OS Y": "180215",
		"lat": "51.507146508744",
		"long": "-0.20654337129402",
		"Zone": "2"
	},
	{
		"Station": "Holloway Road",
		"OS X": "530930",
		"OS Y": "185457",
		"lat": "51.55281611672",
		"long": "-0.11292127587712",
		"Zone": "2"
	},
	{
		"Station": "Homerton",
		"OS X": "536108",
		"OS Y": "184901",
		"lat": "51.546595450822",
		"long": "-0.038497927971748",
		"Zone": "2"
	},
	{
		"Station": "Honor Oak Park",
		"OS X": "536002",
		"OS Y": "174221",
		"lat": "51.450648245652",
		"long": "-0.044138732242293",
		"Zone": "3"
	},
	{
		"Station": "Hornchurch",
		"OS X": "553931",
		"OS Y": "186274",
		"lat": "51.554355082156",
		"long": "0.21894141805997",
		"Zone": "6"
	},
	{
		"Station": "Hornsey",
		"OS X": "530911",
		"OS Y": "189202",
		"lat": "51.586474864733",
		"long": "-0.11180120639571",
		"Zone": "3"
	},
	{
		"Station": "Hounslow",
		"OS X": "513902",
		"OS Y": "174998",
		"lat": "51.46250486146",
		"long": "-0.36178186366717",
		"Zone": "5"
	},
	{
		"Station": "Hounslow Central",
		"OS X": "513592",
		"OS Y": "175928",
		"lat": "51.470925810282",
		"long": "-0.36594373417825",
		"Zone": "4"
	},
	{
		"Station": "Hounslow East",
		"OS X": "514327",
		"OS Y": "176254",
		"lat": "51.473707937461",
		"long": "-0.35526092596841",
		"Zone": "4"
	},
	{
		"Station": "Hounslow West",
		"OS X": "512215",
		"OS Y": "176140",
		"lat": "51.473105762632",
		"long": "-0.38569323300198",
		"Zone": "5"
	},
	{
		"Station": "Hyde Park Corner",
		"OS X": "528330",
		"OS Y": "179801",
		"lat": "51.502584030904",
		"long": "-0.15245970877887",
		"Zone": "1"
	},
	{
		"Station": "Ickenham",
		"OS X": "508127",
		"OS Y": "185811",
		"lat": "51.560825107127",
		"long": "-0.44156508942605",
		"Zone": "6"
	},
	{
		"Station": "Ilford",
		"OS X": "543501",
		"OS Y": "186501",
		"lat": "51.559142232556",
		"long": "0.06869961398625",
		"Zone": "4"
	},
	{
		"Station": "Imperial Wharf",
		"OS X": "526299",
		"OS Y": "176674",
		"lat": "51.474938948929",
		"long": "-0.18282310826897",
		"Zone": "2"
	},
	{
		"Station": "Island Gardens",
		"OS X": "538228",
		"OS Y": "178432",
		"lat": "51.487950088882",
		"long": "-0.010478902499309",
		"Zone": "2"
	},
	{
		"Station": "Isleworth",
		"OS X": "515570",
		"OS Y": "176430",
		"lat": "51.475037464523",
		"long": "-0.33731436875817",
		"Zone": "4"
	},
	{
		"Station": "Kenley",
		"OS X": "532400",
		"OS Y": "160100",
		"lat": "51.324600324285",
		"long": "-0.10120536334161",
		"Zone": "6"
	},
	{
		"Station": "Kennington",
		"OS X": "531660",
		"OS Y": "178337",
		"lat": "51.488662470707",
		"long": "-0.10505621257104",
		"Zone": "2"
	},
	{
		"Station": "Kensal Green",
		"OS X": "523241",
		"OS Y": "182784",
		"lat": "51.530524241234",
		"long": "-0.22469897011847",
		"Zone": "2"
	},
	{
		"Station": "Kensal Rise",
		"OS X": "523501",
		"OS Y": "183201",
		"lat": "51.53421509119",
		"long": "-0.22080656353585",
		"Zone": "2"
	},
	{
		"Station": "Kensington (Olympia)",
		"OS X": "524324",
		"OS Y": "179178",
		"lat": "51.497879724483",
		"long": "-0.21036483866639",
		"Zone": "2"
	},
	{
		"Station": "Kent House",
		"OS X": "535999",
		"OS Y": "170000",
		"lat": "51.412717664303",
		"long": "-0.045801176185629",
		"Zone": "4"
	},
	{
		"Station": "Kentish Town",
		"OS X": "529029",
		"OS Y": "185096",
		"lat": "51.550009538423",
		"long": "-0.14045684366827",
		"Zone": "2"
	},
	{
		"Station": "Kentish Town West",
		"OS X": "528603",
		"OS Y": "184700",
		"lat": "51.546547987029",
		"long": "-0.14674199079293",
		"Zone": "2"
	},
	{
		"Station": "Kenton",
		"OS X": "516833",
		"OS Y": "188304",
		"lat": "51.581496322037",
		"long": "-0.31520243664979",
		"Zone": "4"
	},
	{
		"Station": "Kew Bridge",
		"OS X": "518898",
		"OS Y": "178172",
		"lat": "51.49000465091",
		"long": "-0.28883209363752",
		"Zone": "3"
	},
	{
		"Station": "Kew Gardens",
		"OS X": "519173",
		"OS Y": "176708",
		"lat": "51.476789170755",
		"long": "-0.28536661446493",
		"Zone": "3,4"
	},
	{
		"Station": "Kidbrooke",
		"OS X": "540999",
		"OS Y": "175697",
		"lat": "51.462690183933",
		"long": "0.028314631821257",
		"Zone": "3"
	},
	{
		"Station": "Kilburn",
		"OS X": "524589",
		"OS Y": "184644",
		"lat": "51.546944459981",
		"long": "-0.20461829997264",
		"Zone": "2"
	},
	{
		"Station": "Kilburn High Road",
		"OS X": "525553",
		"OS Y": "183591",
		"lat": "51.537267764059",
		"long": "-0.19109868962017",
		"Zone": "2"
	},
	{
		"Station": "Kilburn Park",
		"OS X": "525361",
		"OS Y": "183349",
		"lat": "51.535135560206",
		"long": "-0.19395164168612",
		"Zone": "2"
	},
	{
		"Station": "King George V",
		"OS X": "543231",
		"OS Y": "180135",
		"lat": "51.502008599189",
		"long": "0.062220618931645",
		"Zone": "3"
	},
	{
		"Station": "King's Cross",
		"OS X": "530312",
		"OS Y": "182991",
		"lat": "51.53079820546",
		"long": "-0.12274200728123",
		"Zone": "1"
	},
	{
		"Station": "Kings Cross St. Pancras",
		"OS X": "530236",
		"OS Y": "182935",
		"lat": "51.530312476892",
		"long": "-0.12385771561154",
		"Zone": "1"
	},
	{
		"Station": "Kingsbury",
		"OS X": "519361",
		"OS Y": "188739",
		"lat": "51.584876550714",
		"long": "-0.27858717715014",
		"Zone": "4"
	},
	{
		"Station": "Kingston",
		"OS X": "518244",
		"OS Y": "169549",
		"lat": "51.412641800653",
		"long": "-0.30112666341862",
		"Zone": "6"
	},
	{
		"Station": "Knightsbridge",
		"OS X": "527765",
		"OS Y": "179650",
		"lat": "51.501354916808",
		"long": "-0.16065008131194",
		"Zone": "1"
	},
	{
		"Station": "Knockholt",
		"OS X": "548499",
		"OS Y": "162896",
		"lat": "51.345751922698",
		"long": "0.13084539482109",
		"Zone": "6"
	},
	{
		"Station": "Ladbroke Grove",
		"OS X": "524284",
		"OS Y": "181328",
		"lat": "51.517210698742",
		"long": "-0.21018376269161",
		"Zone": "2"
	},
	{
		"Station": "Ladywell",
		"OS X": "537716",
		"OS Y": "174884",
		"lat": "51.45619213691",
		"long": "-0.019230010500554",
		"Zone": "3"
	},
	{
		"Station": "Lambeth North",
		"OS X": "531165",
		"OS Y": "179489",
		"lat": "51.499129959063",
		"long": "-0.11175385704735",
		"Zone": "1"
	},
	{
		"Station": "Lancaster Gate",
		"OS X": "526711",
		"OS Y": "180796",
		"lat": "51.511890964101",
		"long": "-0.17541552045722",
		"Zone": "1"
	},
	{
		"Station": "Langdon Park",
		"OS X": "537807",
		"OS Y": "181863",
		"lat": "51.518883939693",
		"long": "-0.015199388573999",
		"Zone": "2"
	},
	{
		"Station": "Latimer Road",
		"OS X": "523789",
		"OS Y": "180954",
		"lat": "51.513958124663",
		"long": "-0.21744525733064",
		"Zone": "2"
	},
	{
		"Station": "Lee",
		"OS X": "540002",
		"OS Y": "174197",
		"lat": "51.449458517716",
		"long": "0.013379080898623",
		"Zone": "3"
	},
	{
		"Station": "Leicester Square",
		"OS X": "529987",
		"OS Y": "180812",
		"lat": "51.511291196842",
		"long": "-0.12822773962177",
		"Zone": "1"
	},
	{
		"Station": "Lewisham",
		"OS X": "538163",
		"OS Y": "175863",
		"lat": "51.464880714235",
		"long": "-0.012418307529155",
		"Zone": "2/3"
	},
	{
		"Station": "Leyton",
		"OS X": "538295",
		"OS Y": "186244",
		"lat": "51.55813227051",
		"long": "-0.0064509088011814",
		"Zone": "3"
	},
	{
		"Station": "Leyton Midland Road",
		"OS X": "538150",
		"OS Y": "187490",
		"lat": "51.569364239801",
		"long": "-0.0080519210997184",
		"Zone": "3"
	},
	{
		"Station": "Leytonstone",
		"OS X": "539345",
		"OS Y": "187429",
		"lat": "51.568522287449",
		"long": "0.009154878018083",
		"Zone": "3,4"
	},
	{
		"Station": "Leytonstone High Road",
		"OS X": "539298",
		"OS Y": "186903",
		"lat": "51.563807342647",
		"long": "0.0082688934065806",
		"Zone": "3"
	},
	{
		"Station": "Limehouse",
		"OS X": "536150",
		"OS Y": "181087",
		"lat": "51.512312167848",
		"long": "-0.039365669438682",
		"Zone": "2"
	},
	{
		"Station": "Liverpool Street",
		"OS X": "533160",
		"OS Y": "181596",
		"lat": "51.517598273919",
		"long": "-0.082235212309326",
		"Zone": "1"
	},
	{
		"Station": "London Bridge",
		"OS X": "532937",
		"OS Y": "180152",
		"lat": "51.504674357597",
		"long": "-0.085991192281661",
		"Zone": "1"
	},
	{
		"Station": "London City Airport",
		"OS X": "542231",
		"OS Y": "180294",
		"lat": "51.50368965775",
		"long": "0.047887121033287",
		"Zone": "3"
	},
	{
		"Station": "London Fields",
		"OS X": "534795",
		"OS Y": "184212",
		"lat": "51.540718847663",
		"long": "-0.057685269137809",
		"Zone": "2"
	},
	{
		"Station": "Loughborough Junction",
		"OS X": "531902",
		"OS Y": "175897",
		"lat": "51.46667891193",
		"long": "-0.10248294761392",
		"Zone": "2"
	},
	{
		"Station": "Loughton",
		"OS X": "542314",
		"OS Y": "195641",
		"lat": "51.641570470369",
		"long": "0.055293528321119",
		"Zone": "6"
	},
	{
		"Station": "Lower Sydenham",
		"OS X": "536831",
		"OS Y": "171372",
		"lat": "51.424846846074",
		"long": "-0.033315960742811",
		"Zone": "4"
	},
	{
		"Station": "Maida Vale",
		"OS X": "525967",
		"OS Y": "182792",
		"lat": "51.529995078969",
		"long": "-0.18541823310956",
		"Zone": "2"
	},
	{
		"Station": "Malden Manor",
		"OS X": "521101",
		"OS Y": "166497",
		"lat": "51.384609567544",
		"long": "-0.26110604834896",
		"Zone": "4"
	},
	{
		"Station": "Manor House",
		"OS X": "532074",
		"OS Y": "187482",
		"lat": "51.570747151453",
		"long": "-0.095670549505162",
		"Zone": "2/3"
	},
	{
		"Station": "Manor Park",
		"OS X": "541929",
		"OS Y": "185757",
		"lat": "51.552854343905",
		"long": "0.045738291167029",
		"Zone": "3,4"
	},
	{
		"Station": "Mansion House",
		"OS X": "532347",
		"OS Y": "180962",
		"lat": "51.512091761163",
		"long": "-0.094183249527509",
		"Zone": "1"
	},
	{
		"Station": "Marble Arch",
		"OS X": "527875",
		"OS Y": "181056",
		"lat": "51.513965510738",
		"long": "-0.15855680746603",
		"Zone": "1"
	},
	{
		"Station": "Maryland",
		"OS X": "539175",
		"OS Y": "184881",
		"lat": "51.545668269809",
		"long": "0.0056960730233714",
		"Zone": "3"
	},
	{
		"Station": "Marylebone",
		"OS X": "527510",
		"OS Y": "181985",
		"lat": "51.522396687994",
		"long": "-0.16347815242029",
		"Zone": "1"
	},
	{
		"Station": "Maze Hill",
		"OS X": "539194",
		"OS Y": "177909",
		"lat": "51.483013655604",
		"long": "0.0032192958995991",
		"Zone": "3"
	},
	{
		"Station": "Mile End",
		"OS X": "536577",
		"OS Y": "182545",
		"lat": "51.525310973905",
		"long": "-0.032651671918221",
		"Zone": "2"
	},
	{
		"Station": "Mill Hill Broadway",
		"OS X": "521300",
		"OS Y": "191900",
		"lat": "51.612871158046",
		"long": "-0.24952262850911",
		"Zone": "4"
	},
	{
		"Station": "Mill Hill East",
		"OS X": "524057",
		"OS Y": "191460",
		"lat": "51.608316669912",
		"long": "-0.20988127429344",
		"Zone": "4"
	},
	{
		"Station": "Mitcham Eastfields",
		"OS X": "528488",
		"OS Y": "169323",
		"lat": "51.408383928225",
		"long": "-0.15398734320935",
		"Zone": "3"
	},
	{
		"Station": "Mitcham Junction",
		"OS X": "528292",
		"OS Y": "167611",
		"lat": "51.39304258672",
		"long": "-0.15742227287945",
		"Zone": "4"
	},
	{
		"Station": "Monument",
		"OS X": "532907",
		"OS Y": "180814",
		"lat": "51.510630425959",
		"long": "-0.086173905918798",
		"Zone": "1"
	},
	{
		"Station": "Moor Park",
		"OS X": "508563",
		"OS Y": "193509",
		"lat": "51.629930718133",
		"long": "-0.4328985822977",
		"Zone": "6,7"
	},
	{
		"Station": "Moorgate",
		"OS X": "532688",
		"OS Y": "181677",
		"lat": "51.518437149414",
		"long": "-0.08900327764505",
		"Zone": "1"
	},
	{
		"Station": "Morden",
		"OS X": "525664",
		"OS Y": "168563",
		"lat": "51.402185984981",
		"long": "-0.19483760810466",
		"Zone": "4"
	},
	{
		"Station": "Morden South",
		"OS X": "525301",
		"OS Y": "167900",
		"lat": "51.396307721608",
		"long": "-0.20028719027858",
		"Zone": "4"
	},
	{
		"Station": "Mornington Crescent",
		"OS X": "529193",
		"OS Y": "183359",
		"lat": "51.534362233874",
		"long": "-0.1387299346061",
		"Zone": "2"
	},
	{
		"Station": "Mortlake",
		"OS X": "520458",
		"OS Y": "175779",
		"lat": "51.468167968359",
		"long": "-0.26718891965297",
		"Zone": "3"
	},
	{
		"Station": "Motspur Park",
		"OS X": "522581",
		"OS Y": "167724",
		"lat": "51.395319655441",
		"long": "-0.23942537454861",
		"Zone": "4"
	},
	{
		"Station": "Mottingham",
		"OS X": "542600",
		"OS Y": "173197",
		"lat": "51.439824969906",
		"long": "0.050338587672779",
		"Zone": "4"
	},
	{
		"Station": "Mudchute",
		"OS X": "537908",
		"OS Y": "178789",
		"lat": "51.491236186648",
		"long": "-0.014945543221677",
		"Zone": "2"
	},
	{
		"Station": "Neasden",
		"OS X": "521415",
		"OS Y": "185422",
		"lat": "51.554627747213",
		"long": "-0.25010062378951",
		"Zone": "3"
	},
	{
		"Station": "New Barnet",
		"OS X": "526502",
		"OS Y": "195996",
		"lat": "51.648536790554",
		"long": "-0.17295526264108",
		"Zone": "5"
	},
	{
		"Station": "New Beckenham",
		"OS X": "536718",
		"OS Y": "170463",
		"lat": "51.41670555246",
		"long": "-0.035290571074268",
		"Zone": "4"
	},
	{
		"Station": "New Cross",
		"OS X": "536750",
		"OS Y": "177110",
		"lat": "51.476429418617",
		"long": "-0.032264414494673",
		"Zone": "2"
	},
	{
		"Station": "New Cross Gate",
		"OS X": "536250",
		"OS Y": "176967",
		"lat": "51.475264932486",
		"long": "-0.039514655295107",
		"Zone": "2"
	},
	{
		"Station": "New Eltham",
		"OS X": "544005",
		"OS Y": "172999",
		"lat": "51.437690651019",
		"long": "0.070459003212279",
		"Zone": "4"
	},
	{
		"Station": "New Malden",
		"OS X": "521392",
		"OS Y": "168612",
		"lat": "51.403555937615",
		"long": "-0.25620373217155",
		"Zone": "4"
	},
	{
		"Station": "New Southgate",
		"OS X": "528672",
		"OS Y": "192218",
		"lat": "51.614093683634",
		"long": "-0.14299533557942",
		"Zone": "4"
	},
	{
		"Station": "Newbury Park",
		"OS X": "544947",
		"OS Y": "188378",
		"lat": "51.575638344309",
		"long": "0.090317586010402",
		"Zone": "4"
	},
	{
		"Station": "Norbiton",
		"OS X": "519424",
		"OS Y": "169495",
		"lat": "51.411909385349",
		"long": "-0.28418557131983",
		"Zone": "5"
	},
	{
		"Station": "Norbury",
		"OS X": "530650",
		"OS Y": "169690",
		"lat": "51.411188517406",
		"long": "-0.12278502535626",
		"Zone": "3"
	},
	{
		"Station": "North Acton",
		"OS X": "520831",
		"OS Y": "181937",
		"lat": "51.523432458806",
		"long": "-0.25971511616691",
		"Zone": "2,3"
	},
	{
		"Station": "North Dulwich",
		"OS X": "532950",
		"OS Y": "174567",
		"lat": "51.454481818931",
		"long": "-0.087904290624922",
		"Zone": "2/3"
	},
	{
		"Station": "North Ealing",
		"OS X": "518816",
		"OS Y": "181243",
		"lat": "51.517622323819",
		"long": "-0.28897914280262",
		"Zone": "3"
	},
	{
		"Station": "North Greenwich",
		"OS X": "539168",
		"OS Y": "179827",
		"lat": "51.500255151591",
		"long": "0.0036006636371896",
		"Zone": "2,3"
	},
	{
		"Station": "North Harrow",
		"OS X": "513540",
		"OS Y": "188578",
		"lat": "51.584631342978",
		"long": "-0.3626185623764",
		"Zone": "5"
	},
	{
		"Station": "North Sheen",
		"OS X": "519132",
		"OS Y": "175442",
		"lat": "51.465419645874",
		"long": "-0.28638307337002",
		"Zone": "3"
	},
	{
		"Station": "North Wembley",
		"OS X": "517663",
		"OS Y": "186198",
		"lat": "51.562396328364",
		"long": "-0.30393379535805",
		"Zone": "4"
	},
	{
		"Station": "Northfields",
		"OS X": "517051",
		"OS Y": "179296",
		"lat": "51.500491708619",
		"long": "-0.31505041439224",
		"Zone": "3"
	},
	{
		"Station": "Northolt",
		"OS X": "513228",
		"OS Y": "184519",
		"lat": "51.548212945697",
		"long": "-0.36842617615208",
		"Zone": "5"
	},
	{
		"Station": "Northolt Park",
		"OS X": "513829",
		"OS Y": "185579",
		"lat": "51.557619094925",
		"long": "-0.35941977403748",
		"Zone": "5"
	},
	{
		"Station": "Northwick Park",
		"OS X": "516634",
		"OS Y": "187967",
		"lat": "51.5785087266",
		"long": "-0.31818496289702",
		"Zone": "4"
	},
	{
		"Station": "Northwood",
		"OS X": "509236",
		"OS Y": "191441",
		"lat": "51.611213662308",
		"long": "-0.42382334746562",
		"Zone": "6"
	},
	{
		"Station": "Northwood Hills",
		"OS X": "510267",
		"OS Y": "190305",
		"lat": "51.600802695129",
		"long": "-0.40929692189409",
		"Zone": "6"
	},
	{
		"Station": "Norwood Junction",
		"OS X": "534001",
		"OS Y": "168193",
		"lat": "51.396954330829",
		"long": "-0.075195484483074",
		"Zone": "4"
	},
	{
		"Station": "Notting Hill Gate",
		"OS X": "525296",
		"OS Y": "180481",
		"lat": "51.509375359878",
		"long": "-0.1959072111467",
		"Zone": "1,2"
	},
	{
		"Station": "Nunhead",
		"OS X": "535293",
		"OS Y": "175975",
		"lat": "51.466579990247",
		"long": "-0.053665348737765",
		"Zone": "2"
	},
	{
		"Station": "Oakleigh Park",
		"OS X": "527001",
		"OS Y": "194800",
		"lat": "51.637676382963",
		"long": "-0.16618051866214",
		"Zone": "4"
	},
	{
		"Station": "Oakwood",
		"OS X": "529349",
		"OS Y": "195968",
		"lat": "51.64763797617",
		"long": "-0.1318390886991",
		"Zone": "5"
	},
	{
		"Station": "Old Street",
		"OS X": "532764",
		"OS Y": "182474",
		"lat": "51.525581481862",
		"long": "-0.087608545343845",
		"Zone": "1"
	},
	{
		"Station": "Orpington",
		"OS X": "545500",
		"OS Y": "165900",
		"lat": "51.373520035814",
		"long": "0.089043266168332",
		"Zone": "6"
	},
	{
		"Station": "Osterley",
		"OS X": "514529",
		"OS Y": "177094",
		"lat": "51.481216852781",
		"long": "-0.3520816978192",
		"Zone": "4"
	},
	{
		"Station": "Oval",
		"OS X": "531108",
		"OS Y": "177516",
		"lat": "51.481412613811",
		"long": "-0.11330667730935",
		"Zone": "2"
	},
	{
		"Station": "Oxford Circus",
		"OS X": "529102",
		"OS Y": "181227",
		"lat": "51.515223419245",
		"long": "-0.14082176208955",
		"Zone": "1"
	},
	{
		"Station": "Paddington",
		"OS X": "526680",
		"OS Y": "181185",
		"lat": "51.515393806532",
		"long": "-0.17572234283505",
		"Zone": "1"
	},
	{
		"Station": "Palmers Green",
		"OS X": "530925",
		"OS Y": "192798",
		"lat": "51.618786761028",
		"long": "-0.11025805805573",
		"Zone": "4"
	},
	{
		"Station": "Park Royal",
		"OS X": "519074",
		"OS Y": "182274",
		"lat": "51.526834054645",
		"long": "-0.28491450496891",
		"Zone": "3"
	},
	{
		"Station": "Parsons Green",
		"OS X": "525029",
		"OS Y": "176645",
		"lat": "51.474960176772",
		"long": "-0.20111009589714",
		"Zone": "2"
	},
	{
		"Station": "Peckham Rye",
		"OS X": "534152",
		"OS Y": "176271",
		"lat": "51.469511372801",
		"long": "-0.069969158361951",
		"Zone": "2"
	},
	{
		"Station": "Penge East",
		"OS X": "535374",
		"OS Y": "170791",
		"lat": "51.41997535513",
		"long": "-0.054480885538245",
		"Zone": "4"
	},
	{
		"Station": "Penge West",
		"OS X": "534952",
		"OS Y": "170567",
		"lat": "51.418062935027",
		"long": "-0.060631385884983",
		"Zone": "4"
	},
	{
		"Station": "Perivale",
		"OS X": "516404",
		"OS Y": "183270",
		"lat": "51.536341860358",
		"long": "-0.32305600630537",
		"Zone": "4"
	},
	{
		"Station": "Petts Wood",
		"OS X": "544440",
		"OS Y": "167548",
		"lat": "51.388598981243",
		"long": "0.074494399194959",
		"Zone": "5"
	},
	{
		"Station": "Piccadilly Circus",
		"OS X": "529612",
		"OS Y": "180625",
		"lat": "51.509696764476",
		"long": "-0.13369718974012",
		"Zone": "1"
	},
	{
		"Station": "Pimlico",
		"OS X": "529711",
		"OS Y": "178386",
		"lat": "51.489552877924",
		"long": "-0.1330938573102",
		"Zone": "1"
	},
	{
		"Station": "Pinner",
		"OS X": "512233",
		"OS Y": "189409",
		"lat": "51.592361724428",
		"long": "-0.38120935690424",
		"Zone": "5"
	},
	{
		"Station": "Plaistow",
		"OS X": "540058",
		"OS Y": "183305",
		"lat": "51.531288332324",
		"long": "0.017795056275962",
		"Zone": "3"
	},
	{
		"Station": "Plumstead",
		"OS X": "544803",
		"OS Y": "178820",
		"lat": "51.489792413595",
		"long": "0.084314017745385",
		"Zone": "4"
	},
	{
		"Station": "Ponders End",
		"OS X": "536097",
		"OS Y": "195599",
		"lat": "51.642730695",
		"long": "-0.034510654933282",
		"Zone": "5"
	},
	{
		"Station": "Pontoon Dock",
		"OS X": "541226",
		"OS Y": "180102",
		"lat": "51.502216211037",
		"long": "0.033340112607835",
		"Zone": "3"
	},
	{
		"Station": "Poplar",
		"OS X": "537698",
		"OS Y": "180603",
		"lat": "51.507588072081",
		"long": "-0.017261086484836",
		"Zone": "2"
	},
	{
		"Station": "Preston Road",
		"OS X": "518260",
		"OS Y": "187292",
		"lat": "51.572103763883",
		"long": "-0.29495758553154",
		"Zone": "4"
	},
	{
		"Station": "Prince Regent",
		"OS X": "541215",
		"OS Y": "180905",
		"lat": "51.509434545079",
		"long": "0.033502981448267",
		"Zone": "3"
	},
	{
		"Station": "Pudding Mill Lane",
		"OS X": "537930",
		"OS Y": "183585",
		"lat": "51.53432785535",
		"long": "-0.012754096692901",
		"Zone": "2,3"
	},
	{
		"Station": "Purley",
		"OS X": "531500",
		"OS Y": "161497",
		"lat": "51.337363567516",
		"long": "-0.11359916443804",
		"Zone": "6"
	},
	{
		"Station": "Purley Oaks",
		"OS X": "532503",
		"OS Y": "162594",
		"lat": "51.346989351539",
		"long": "-0.098800976652713",
		"Zone": "6"
	},
	{
		"Station": "Putney",
		"OS X": "523992",
		"OS Y": "175061",
		"lat": "51.460952556568",
		"long": "-0.21658898147399",
		"Zone": "2,3"
	},
	{
		"Station": "Putney Bridge",
		"OS X": "524476",
		"OS Y": "175842",
		"lat": "51.467865362703",
		"long": "-0.20935102262327",
		"Zone": "2"
	},
	{
		"Station": "Queens Park",
		"OS X": "524612",
		"OS Y": "183239",
		"lat": "51.534312675201",
		"long": "-0.20478373421795",
		"Zone": "2"
	},
	{
		"Station": "Queens Road Peckham",
		"OS X": "535015",
		"OS Y": "176825",
		"lat": "51.474284715779",
		"long": "-0.057340582526957",
		"Zone": "2"
	},
	{
		"Station": "Queensbury",
		"OS X": "518802",
		"OS Y": "189728",
		"lat": "51.593883010111",
		"long": "-0.28631716346916",
		"Zone": "4"
	},
	{
		"Station": "Queenstown Road",
		"OS X": "528763",
		"OS Y": "176738",
		"lat": "51.47495914471",
		"long": "-0.14734091559888",
		"Zone": "2"
	},
	{
		"Station": "Queensway",
		"OS X": "525883",
		"OS Y": "180615",
		"lat": "51.510449255439",
		"long": "-0.18740549543317",
		"Zone": "1"
	},
	{
		"Station": "Radlett",
		"OS X": "516375",
		"OS Y": "199856",
		"lat": "51.685413310275",
		"long": "-0.31797317069656",
		"Zone": ""
	},
	{
		"Station": "Rainham",
		"OS X": "552097",
		"OS Y": "182099",
		"lat": "51.517340491331",
		"long": "0.19070638530502",
		"Zone": "6"
	},
	{
		"Station": "Ravensbourne",
		"OS X": "538699",
		"OS Y": "170201",
		"lat": "51.413870378956",
		"long": "-0.0069234381730423",
		"Zone": "4"
	},
	{
		"Station": "Ravenscourt Park",
		"OS X": "522558",
		"OS Y": "178711",
		"lat": "51.494068008984",
		"long": "-0.23595483065011",
		"Zone": "2"
	},
	{
		"Station": "Rayners Lane",
		"OS X": "512979",
		"OS Y": "187538",
		"lat": "51.575396777398",
		"long": "-0.371046385824",
		"Zone": "5"
	},
	{
		"Station": "Raynes Park",
		"OS X": "523206",
		"OS Y": "169303",
		"lat": "51.409375373186",
		"long": "-0.22989856350727",
		"Zone": "4"
	},
	{
		"Station": "Rectory Road",
		"OS X": "534001",
		"OS Y": "186199",
		"lat": "51.558763484573",
		"long": "-0.068371241749211",
		"Zone": "2"
	},
	{
		"Station": "Redbridge",
		"OS X": "541833",
		"OS Y": "188371",
		"lat": "51.576366911264",
		"long": "0.045408472505876",
		"Zone": "4"
	},
	{
		"Station": "Reedham",
		"OS X": "530835",
		"OS Y": "160821",
		"lat": "51.331441727656",
		"long": "-0.12338827286968",
		"Zone": "6"
	},
	{
		"Station": "Regents Park",
		"OS X": "528765",
		"OS Y": "182174",
		"lat": "51.52381069054",
		"long": "-0.14532999904559",
		"Zone": "1"
	},
	{
		"Station": "Richmond",
		"OS X": "518072",
		"OS Y": "175174",
		"lat": "51.463232922347",
		"long": "-0.30172474133933",
		"Zone": "4"
	},
	{
		"Station": "Rickmansworth",
		"OS X": "505717",
		"OS Y": "194605",
		"lat": "51.640323072212",
		"long": "-0.47367013575456",
		"Zone": "7"
	},
	{
		"Station": "Riddlesdown",
		"OS X": "532497",
		"OS Y": "161001",
		"lat": "51.332674842588",
		"long": "-0.099479315537562",
		"Zone": "6"
	},
	{
		"Station": "Roding Valley",
		"OS X": "541612",
		"OS Y": "192882",
		"lat": "51.616956440142",
		"long": "0.044040648415103",
		"Zone": "4"
	},
	{
		"Station": "Romford",
		"OS X": "551377",
		"OS Y": "188455",
		"lat": "51.574641568849",
		"long": "0.18306970022131",
		"Zone": "6"
	},
	{
		"Station": "Rotherhithe",
		"OS X": "535239",
		"OS Y": "179870",
		"lat": "51.501594510808",
		"long": "-0.052951891484305",
		"Zone": "2"
	},
	{
		"Station": "Royal Albert",
		"OS X": "542029",
		"OS Y": "180823",
		"lat": "51.508493863562",
		"long": "0.045191552169371",
		"Zone": "3"
	},
	{
		"Station": "Royal Oak",
		"OS X": "525764",
		"OS Y": "181485",
		"lat": "51.518294375269",
		"long": "-0.18880926348942",
		"Zone": "2"
	},
	{
		"Station": "Royal Victoria",
		"OS X": "540139",
		"OS Y": "180833",
		"lat": "51.509055232332",
		"long": "0.017979819853408",
		"Zone": "3"
	},
	{
		"Station": "Ruislip",
		"OS X": "509510",
		"OS Y": "187102",
		"lat": "51.57216197222",
		"long": "-0.42122049909957",
		"Zone": "6"
	},
	{
		"Station": "Ruislip Gardens",
		"OS X": "510367",
		"OS Y": "185763",
		"lat": "51.559960227907",
		"long": "-0.40927968814014",
		"Zone": "5"
	},
	{
		"Station": "Ruislip Manor",
		"OS X": "510088",
		"OS Y": "187258",
		"lat": "51.573451624726",
		"long": "-0.41283492710738",
		"Zone": "6"
	},
	{
		"Station": "Russell Square",
		"OS X": "530207",
		"OS Y": "182122",
		"lat": "51.523013052867",
		"long": "-0.12457578611157",
		"Zone": "1"
	},
	{
		"Station": "Sanderstead",
		"OS X": "532855",
		"OS Y": "162743",
		"lat": "51.34824626461",
		"long": "-0.093694143249397",
		"Zone": "6"
	},
	{
		"Station": "Selhurst",
		"OS X": "532993",
		"OS Y": "167636",
		"lat": "51.39218578041",
		"long": "-0.089884666539009",
		"Zone": "4"
	},
	{
		"Station": "Seven Kings",
		"OS X": "545401",
		"OS Y": "187095",
		"lat": "51.563993339397",
		"long": "0.096333999350604",
		"Zone": "4"
	},
	{
		"Station": "Seven Sisters",
		"OS X": "533646",
		"OS Y": "188927",
		"lat": "51.583362168372",
		"long": "-0.0724523920649",
		"Zone": "3"
	},
	{
		"Station": "Shadwell",
		"OS X": "534936",
		"OS Y": "180942",
		"lat": "51.51130016173",
		"long": "-0.056904799137598",
		"Zone": "2"
	},
	{
		"Station": "Shepherds Bush",
		"OS X": "523741",
		"OS Y": "179904",
		"lat": "51.50453217729",
		"long": "-0.21850475368199",
		"Zone": "2"
	},
	{
		"Station": "Shepherds Bush Market",
		"OS X": "523121",
		"OS Y": "180039",
		"lat": "51.505880735504",
		"long": "-0.22738608723774",
		"Zone": "2"
	},
	{
		"Station": "Shoreditch",
		"OS X": "533931",
		"OS Y": "182185",
		"lat": "51.522709102713",
		"long": "-0.070906418527321",
		"Zone": "2"
	},
	{
		"Station": "Shortlands",
		"OS X": "539399",
		"OS Y": "169300",
		"lat": "51.40560236593",
		"long": "0.0027819191560382",
		"Zone": "4"
	},
	{
		"Station": "Sidcup",
		"OS X": "546300",
		"OS Y": "172698",
		"lat": "51.43439844437",
		"long": "0.10332974285774",
		"Zone": "5"
	},
	{
		"Station": "Silver Street",
		"OS X": "533544",
		"OS Y": "192472",
		"lat": "51.615242486372",
		"long": "-0.072575300701906",
		"Zone": "4"
	},
	{
		"Station": "Slade Green",
		"OS X": "552250",
		"OS Y": "176584",
		"lat": "51.467747631244",
		"long": "0.19053278174752",
		"Zone": "6"
	},
	{
		"Station": "Sloane Square",
		"OS X": "528080",
		"OS Y": "178657",
		"lat": "51.492359782932",
		"long": "-0.1564744555002",
		"Zone": "1"
	},
	{
		"Station": "Smitham",
		"OS X": "530098",
		"OS Y": "159802",
		"lat": "51.322452969178",
		"long": "-0.13433270854947",
		"Zone": "6"
	},
	{
		"Station": "Snaresbrook",
		"OS X": "540161",
		"OS Y": "188828",
		"lat": "51.580891270601",
		"long": "0.021478357761873",
		"Zone": "4"
	},
	{
		"Station": "South Acton",
		"OS X": "520166",
		"OS Y": "179279",
		"lat": "51.499685861011",
		"long": "-0.27020080333496",
		"Zone": "3"
	},
	{
		"Station": "South Bermondsey",
		"OS X": "535156",
		"OS Y": "178319",
		"lat": "51.487676621549",
		"long": "-0.054740420692279",
		"Zone": "2"
	},
	{
		"Station": "South Croydon",
		"OS X": "532896",
		"OS Y": "164358",
		"lat": "51.362750208796",
		"long": "-0.092503001948904",
		"Zone": "5"
	},
	{
		"Station": "South Ealing",
		"OS X": "517605",
		"OS Y": "179437",
		"lat": "51.501644057917",
		"long": "-0.30702584019952",
		"Zone": "3"
	},
	{
		"Station": "South Hampstead",
		"OS X": "526425",
		"OS Y": "184081",
		"lat": "51.541476868984",
		"long": "-0.1783567825076",
		"Zone": "2"
	},
	{
		"Station": "South Harrow",
		"OS X": "514334",
		"OS Y": "186376",
		"lat": "51.564680211138",
		"long": "-0.35187954635816",
		"Zone": "5"
	},
	{
		"Station": "South Kensington",
		"OS X": "526865",
		"OS Y": "178817",
		"lat": "51.494071386411",
		"long": "-0.17390862058942",
		"Zone": "1"
	},
	{
		"Station": "South Kenton",
		"OS X": "517350",
		"OS Y": "187153",
		"lat": "51.571044486824",
		"long": "-0.30812855062663",
		"Zone": "4"
	},
	{
		"Station": "South Merton",
		"OS X": "524917",
		"OS Y": "168662",
		"lat": "51.403240579864",
		"long": "-0.20553592740103",
		"Zone": "4"
	},
	{
		"Station": "South Quay",
		"OS X": "537636",
		"OS Y": "179853",
		"lat": "51.500863608239",
		"long": "-0.018446287979256",
		"Zone": "2"
	},
	{
		"Station": "South Ruislip",
		"OS X": "511080",
		"OS Y": "185437",
		"lat": "51.55689035096",
		"long": "-0.39910148824501",
		"Zone": "5"
	},
	{
		"Station": "South Tottenham",
		"OS X": "533697",
		"OS Y": "188599",
		"lat": "51.580402594532",
		"long": "-0.071841526783666",
		"Zone": "3"
	},
	{
		"Station": "South Wimbledon",
		"OS X": "525828",
		"OS Y": "170033",
		"lat": "51.41536073293",
		"long": "-0.19196016848772",
		"Zone": "3/4"
	},
	{
		"Station": "South Woodford",
		"OS X": "540577",
		"OS Y": "190026",
		"lat": "51.591552612383",
		"long": "0.027957511681624",
		"Zone": "4"
	},
	{
		"Station": "Southall",
		"OS X": "512620",
		"OS Y": "179804",
		"lat": "51.505956957579",
		"long": "-0.37869678379695",
		"Zone": "4"
	},
	{
		"Station": "Southbury",
		"OS X": "534803",
		"OS Y": "196199",
		"lat": "51.648433731335",
		"long": "-0.052968859157203",
		"Zone": "5"
	},
	{
		"Station": "Southfields",
		"OS X": "524730",
		"OS Y": "173291",
		"lat": "51.444883338258",
		"long": "-0.20659499856664",
		"Zone": "3"
	},
	{
		"Station": "Southgate",
		"OS X": "529675",
		"OS Y": "194278",
		"lat": "51.63237586338",
		"long": "-0.12775560097809",
		"Zone": "4"
	},
	{
		"Station": "Southwark",
		"OS X": "531566",
		"OS Y": "180025",
		"lat": "51.503853632869",
		"long": "-0.10578053394541",
		"Zone": "1"
	},
	{
		"Station": "St Helier",
		"OS X": "525408",
		"OS Y": "167191",
		"lat": "51.389912187517",
		"long": "-0.19900022218424",
		"Zone": "4"
	},
	{
		"Station": "St James Street",
		"OS X": "536402",
		"OS Y": "188694",
		"lat": "51.580608667586",
		"long": "-0.032790131848525",
		"Zone": "3"
	},
	{
		"Station": "St Johns",
		"OS X": "537400",
		"OS Y": "176298",
		"lat": "51.468975297065",
		"long": "-0.023226267171585",
		"Zone": "2"
	},
	{
		"Station": "St Margarets",
		"OS X": "516732",
		"OS Y": "174250",
		"lat": "51.455206030249",
		"long": "-0.32130985776381",
		"Zone": "4"
	},
	{
		"Station": "St Mary Cray",
		"OS X": "546698",
		"OS Y": "168298",
		"lat": "51.394759394244",
		"long": "0.10723227089692",
		"Zone": "6"
	},
	{
		"Station": "St Pancras",
		"OS X": "530122",
		"OS Y": "182959",
		"lat": "51.530554416571",
		"long": "-0.12549136793246",
		"Zone": "1"
	},
	{
		"Station": "St. James's Park",
		"OS X": "529629",
		"OS Y": "179503",
		"lat": "51.499609810342",
		"long": "-0.13386435110426",
		"Zone": "1"
	},
	{
		"Station": "St. Johns Wood",
		"OS X": "526742",
		"OS Y": "183352",
		"lat": "51.534854431713",
		"long": "-0.17405042505482",
		"Zone": "2"
	},
	{
		"Station": "St. Pauls",
		"OS X": "532105",
		"OS Y": "181261",
		"lat": "51.51483530739",
		"long": "-0.097556591574387",
		"Zone": "1"
	},
	{
		"Station": "Stamford Brook",
		"OS X": "521913",
		"OS Y": "178738",
		"lat": "51.494449997347",
		"long": "-0.24523190696758",
		"Zone": "2"
	},
	{
		"Station": "Stamford Hill",
		"OS X": "533381",
		"OS Y": "187928",
		"lat": "51.574447612615",
		"long": "-0.076653913978365",
		"Zone": "3"
	},
	{
		"Station": "Stanmore",
		"OS X": "517574",
		"OS Y": "192569",
		"lat": "51.6196734807",
		"long": "-0.30308485086488",
		"Zone": "5"
	},
	{
		"Station": "Stepney Green",
		"OS X": "535566",
		"OS Y": "182149",
		"lat": "51.521995838874",
		"long": "-0.047368111957746",
		"Zone": "2"
	},
	{
		"Station": "Stockwell",
		"OS X": "530473",
		"OS Y": "176470",
		"lat": "51.472159270341",
		"long": "-0.12283190859196",
		"Zone": "2"
	},
	{
		"Station": "Stoke Newington",
		"OS X": "533710",
		"OS Y": "186845",
		"lat": "51.564637618307",
		"long": "-0.072320969849242",
		"Zone": "2"
	},
	{
		"Station": "Stonebridge Park",
		"OS X": "519690",
		"OS Y": "184197",
		"lat": "51.54398658738",
		"long": "-0.27538602336732",
		"Zone": "3"
	},
	{
		"Station": "Stoneleigh",
		"OS X": "522021",
		"OS Y": "164155",
		"lat": "51.363364082259",
		"long": "-0.248695295654",
		"Zone": "5"
	},
	{
		"Station": "Stratford",
		"OS X": "538533",
		"OS Y": "184421",
		"lat": "51.541692579295",
		"long": "-0.0037372234417709",
		"Zone": "3"
	},
	{
		"Station": "Stratford International",
		"OS X": "538175",
		"OS Y": "184758",
		"lat": "51.54480853536",
		"long": "-0.0087640154463654",
		"Zone": "3"
	},
	{
		"Station": "Strawberry Hill",
		"OS X": "515500",
		"OS Y": "172502",
		"lat": "51.439747873261",
		"long": "-0.33960334587097",
		"Zone": "5"
	},
	{
		"Station": "Streatham",
		"OS X": "529946",
		"OS Y": "171303",
		"lat": "51.425845878375",
		"long": "-0.13231111566835",
		"Zone": "3"
	},
	{
		"Station": "Streatham Common",
		"OS X": "529729",
		"OS Y": "170534",
		"lat": "51.418984686908",
		"long": "-0.13571178617484",
		"Zone": "3"
	},
	{
		"Station": "Streatham Hill",
		"OS X": "530233",
		"OS Y": "172714",
		"lat": "51.438460380547",
		"long": "-0.1276670964405",
		"Zone": "3"
	},
	{
		"Station": "Sudbury & Harrow Road",
		"OS X": "516853",
		"OS Y": "185300",
		"lat": "51.554493821699",
		"long": "-0.31591182033013",
		"Zone": "4"
	},
	{
		"Station": "Sudbury Hill",
		"OS X": "515427",
		"OS Y": "185584",
		"lat": "51.557339600086",
		"long": "-0.33637769283987",
		"Zone": "4"
	},
	{
		"Station": "Sudbury Hill Harrow",
		"OS X": "515490",
		"OS Y": "185697",
		"lat": "51.558342313079",
		"long": "-0.33543227050831",
		"Zone": "4"
	},
	{
		"Station": "Sudbury Town",
		"OS X": "516832",
		"OS Y": "184955",
		"lat": "51.551397480891",
		"long": "-0.31632906529511",
		"Zone": "4"
	},
	{
		"Station": "Sundridge Park",
		"OS X": "540599",
		"OS Y": "170200",
		"lat": "51.413393796204",
		"long": "0.020379486210958",
		"Zone": "4"
	},
	{
		"Station": "Surbiton",
		"OS X": "518070",
		"OS Y": "167315",
		"lat": "51.392599569913",
		"long": "-0.3043701893312",
		"Zone": "6"
	},
	{
		"Station": "Surrey Quays",
		"OS X": "535641",
		"OS Y": "178954",
		"lat": "51.493266862158",
		"long": "-0.047515585346921",
		"Zone": "2"
	},
	{
		"Station": "Sutton",
		"OS X": "526028",
		"OS Y": "163823",
		"lat": "51.359506158142",
		"long": "-0.19128765090448",
		"Zone": "5"
	},
	{
		"Station": "Sutton Common",
		"OS X": "525593",
		"OS Y": "165598",
		"lat": "51.375554718505",
		"long": "-0.19690554710689",
		"Zone": "4"
	},
	{
		"Station": "Swiss Cottage",
		"OS X": "526611",
		"OS Y": "184259",
		"lat": "51.543034867714",
		"long": "-0.17561218648329",
		"Zone": "2"
	},
	{
		"Station": "Sydenham",
		"OS X": "535311",
		"OS Y": "171609",
		"lat": "51.427341258001",
		"long": "-0.055074289357489",
		"Zone": "3"
	},
	{
		"Station": "Sydenham Hill",
		"OS X": "533548",
		"OS Y": "172145",
		"lat": "51.432575896828",
		"long": "-0.080215824663043",
		"Zone": "3"
	},
	{
		"Station": "Syon Lane",
		"OS X": "516306",
		"OS Y": "177163",
		"lat": "51.481474727333",
		"long": "-0.32648063620347",
		"Zone": "4"
	},
	{
		"Station": "Teddington",
		"OS X": "516019",
		"OS Y": "170817",
		"lat": "51.424497537357",
		"long": "-0.3326909565597",
		"Zone": "6"
	},
	{
		"Station": "Temple",
		"OS X": "530995",
		"OS Y": "180810",
		"lat": "51.51104062071",
		"long": "-0.11371134239066",
		"Zone": "1"
	},
	{
		"Station": "Thames Ditton",
		"OS X": "515721",
		"OS Y": "166818",
		"lat": "51.388616113023",
		"long": "-0.33827846842909",
		"Zone": "6"
	},
	{
		"Station": "Theydon Bois",
		"OS X": "545509",
		"OS Y": "199180",
		"lat": "51.672552069981",
		"long": "0.10290519530392",
		"Zone": "6"
	},
	{
		"Station": "Thornton Heath",
		"OS X": "532242",
		"OS Y": "168317",
		"lat": "51.398481089859",
		"long": "-0.10041879260042",
		"Zone": "4"
	},
	{
		"Station": "Tolworth",
		"OS X": "519834",
		"OS Y": "165603",
		"lat": "51.376843349784",
		"long": "-0.27960574939507",
		"Zone": "5"
	},
	{
		"Station": "Tooting",
		"OS X": "527969",
		"OS Y": "170591",
		"lat": "51.419896651766",
		"long": "-0.16098809293112",
		"Zone": "3"
	},
	{
		"Station": "Tooting Bec",
		"OS X": "528015",
		"OS Y": "172366",
		"lat": "51.435838083172",
		"long": "-0.15968610811001",
		"Zone": "3"
	},
	{
		"Station": "Tooting Broadway",
		"OS X": "527415",
		"OS Y": "171373",
		"lat": "51.42704916499",
		"long": "-0.16867014599257",
		"Zone": "3"
	},
	{
		"Station": "Tottenham Court Road",
		"OS X": "529774",
		"OS Y": "181354",
		"lat": "51.51621088565",
		"long": "-0.13109602942553",
		"Zone": "1"
	},
	{
		"Station": "Tottenham Hale",
		"OS X": "534483",
		"OS Y": "189465",
		"lat": "51.587997785049",
		"long": "-0.060173390466137",
		"Zone": "3"
	},
	{
		"Station": "Totteridge & Whetstone",
		"OS X": "526111",
		"OS Y": "193951",
		"lat": "51.63024674119",
		"long": "-0.17933981753571",
		"Zone": "4"
	},
	{
		"Station": "Tower Gateway",
		"OS X": "533725",
		"OS Y": "180809",
		"lat": "51.510392650922",
		"long": "-0.074395469530797",
		"Zone": "1"
	},
	{
		"Station": "Tower Hill",
		"OS X": "533566",
		"OS Y": "180805",
		"lat": "51.510394282129",
		"long": "-0.076686790760475",
		"Zone": "1"
	},
	{
		"Station": "Tufnell Park",
		"OS X": "529200",
		"OS Y": "185816",
		"lat": "51.556440814333",
		"long": "-0.13772775294192",
		"Zone": "2"
	},
	{
		"Station": "Tulse Hill",
		"OS X": "531797",
		"OS Y": "172903",
		"lat": "51.4397974399",
		"long": "-0.10510812362275",
		"Zone": "3"
	},
	{
		"Station": "Turkey Street",
		"OS X": "535129",
		"OS Y": "198903",
		"lat": "51.672653666247",
		"long": "-0.047215472250329",
		"Zone": "6"
	},
	{
		"Station": "Turnham Green",
		"OS X": "521267",
		"OS Y": "178804",
		"lat": "51.495181971972",
		"long": "-0.25451016527384",
		"Zone": "2"
	},
	{
		"Station": "Turnpike Lane",
		"OS X": "531524",
		"OS Y": "189650",
		"lat": "51.590358146027",
		"long": "-0.1027906082273",
		"Zone": "3"
	},
	{
		"Station": "Twickenham",
		"OS X": "516221",
		"OS Y": "173687",
		"lat": "51.450250987135",
		"long": "-0.32884583782433",
		"Zone": "5"
	},
	{
		"Station": "Upminster",
		"OS X": "556167",
		"OS Y": "186833",
		"lat": "51.558763325208",
		"long": "0.2514152239117",
		"Zone": "6"
	},
	{
		"Station": "Upminster Bridge",
		"OS X": "555002",
		"OS Y": "186681",
		"lat": "51.557718771685",
		"long": "0.23455631120919",
		"Zone": "6"
	},
	{
		"Station": "Upney",
		"OS X": "545844",
		"OS Y": "184260",
		"lat": "51.538405634701",
		"long": "0.10154616057314",
		"Zone": "4"
	},
	{
		"Station": "Upper Holloway",
		"OS X": "529778",
		"OS Y": "186630",
		"lat": "51.563623319983",
		"long": "-0.12909493917319",
		"Zone": "2"
	},
	{
		"Station": "Upper Warlingham",
		"OS X": "534100",
		"OS Y": "158383",
		"lat": "51.308772263619",
		"long": "-0.077467317417935",
		"Zone": "6"
	},
	{
		"Station": "Upton Park",
		"OS X": "541204",
		"OS Y": "183931",
		"lat": "51.536628195871",
		"long": "0.034556255633226",
		"Zone": "3"
	},
	{
		"Station": "Uxbridge",
		"OS X": "505698",
		"OS Y": "184161",
		"lat": "51.546454564696",
		"long": "-0.47708714109832",
		"Zone": "6"
	},
	{
		"Station": "Vauxhall",
		"OS X": "530366",
		"OS Y": "177978",
		"lat": "51.485735816391",
		"long": "-0.12381555294752",
		"Zone": "1,2"
	},
	{
		"Station": "Victoria",
		"OS X": "528941",
		"OS Y": "179131",
		"lat": "51.496423969876",
		"long": "-0.14390630306143",
		"Zone": "1"
	},
	{
		"Station": "Waddon",
		"OS X": "531151",
		"OS Y": "164828",
		"lat": "51.367379270921",
		"long": "-0.11737971383443",
		"Zone": "5"
	},
	{
		"Station": "Wallington",
		"OS X": "528841",
		"OS Y": "163985",
		"lat": "51.360331562347",
		"long": "-0.15084947457103",
		"Zone": "5"
	},
	{
		"Station": "Walthamstow Central",
		"OS X": "537286",
		"OS Y": "188986",
		"lat": "51.583018115291",
		"long": "-0.019926114372123",
		"Zone": "3"
	},
	{
		"Station": "Walthamstow Queens Road",
		"OS X": "537020",
		"OS Y": "188815",
		"lat": "51.581546193899",
		"long": "-0.0238295131434",
		"Zone": "3"
	},
	{
		"Station": "Wandsworth Common",
		"OS X": "527719",
		"OS Y": "173530",
		"lat": "51.446365623898",
		"long": "-0.16352259346247",
		"Zone": "3"
	},
	{
		"Station": "Wandsworth Road",
		"OS X": "529354",
		"OS Y": "176226",
		"lat": "51.470223218762",
		"long": "-0.13902328072857",
		"Zone": "2"
	},
	{
		"Station": "Wandsworth Town",
		"OS X": "525985",
		"OS Y": "175119",
		"lat": "51.461034098277",
		"long": "-0.18789564563536",
		"Zone": "2"
	},
	{
		"Station": "Wanstead",
		"OS X": "540685",
		"OS Y": "188176",
		"lat": "51.574902145755",
		"long": "0.028774900468403",
		"Zone": "4"
	},
	{
		"Station": "Wanstead Park",
		"OS X": "540592",
		"OS Y": "185600",
		"lat": "51.551778074703",
		"long": "0.026404363778733",
		"Zone": "3"
	},
	{
		"Station": "Wapping",
		"OS X": "535030",
		"OS Y": "180170",
		"lat": "51.504340322706",
		"long": "-0.055846408737992",
		"Zone": "2"
	},
	{
		"Station": "Warren Street",
		"OS X": "529253",
		"OS Y": "182272",
		"lat": "51.524580005085",
		"long": "-0.13826391949985",
		"Zone": "1"
	},
	{
		"Station": "Warwick Avenue",
		"OS X": "526158",
		"OS Y": "182030",
		"lat": "51.523104457076",
		"long": "-0.18293888140664",
		"Zone": "2"
	},
	{
		"Station": "Waterloo",
		"OS X": "531050",
		"OS Y": "179933",
		"lat": "51.503146653078",
		"long": "-0.11324484659974",
		"Zone": "1"
	},
	{
		"Station": "Watford",
		"OS X": "509579",
		"OS Y": "196610",
		"lat": "51.657605146891",
		"long": "-0.41725555293253",
		"Zone": "7"
	},
	{
		"Station": "Welling",
		"OS X": "546096",
		"OS Y": "176073",
		"lat": "51.464777075182",
		"long": "0.10178943179171",
		"Zone": "4"
	},
	{
		"Station": "Wembley Central",
		"OS X": "518214",
		"OS Y": "185039",
		"lat": "51.551864816194",
		"long": "-0.29637790641578",
		"Zone": "4"
	},
	{
		"Station": "Wembley Park",
		"OS X": "519373",
		"OS Y": "186341",
		"lat": "51.563322491915",
		"long": "-0.27922812839087",
		"Zone": "4"
	},
	{
		"Station": "Wembley Stadium",
		"OS X": "518924",
		"OS Y": "185366",
		"lat": "51.554654605186",
		"long": "-0.28603202522583",
		"Zone": "4"
	},
	{
		"Station": "West Acton",
		"OS X": "519394",
		"OS Y": "181273",
		"lat": "51.517770184208",
		"long": "-0.28064276561988",
		"Zone": "3"
	},
	{
		"Station": "West Brompton",
		"OS X": "525383",
		"OS Y": "178030",
		"lat": "51.487328938205",
		"long": "-0.19552441152812",
		"Zone": "2"
	},
	{
		"Station": "West Croydon",
		"OS X": "532188",
		"OS Y": "166098",
		"lat": "51.378552186111",
		"long": "-0.1020199266263",
		"Zone": "5"
	},
	{
		"Station": "West Drayton",
		"OS X": "506124",
		"OS Y": "180122",
		"lat": "51.510071275994",
		"long": "-0.47216168972777",
		"Zone": "6"
	},
	{
		"Station": "West Dulwich",
		"OS X": "532798",
		"OS Y": "173053",
		"lat": "51.440911831895",
		"long": "-0.090658290563767",
		"Zone": "3"
	},
	{
		"Station": "West Ealing",
		"OS X": "516690",
		"OS Y": "180749",
		"lat": "51.513625243955",
		"long": "-0.31976854613702",
		"Zone": "3"
	},
	{
		"Station": "West Finchley",
		"OS X": "525507",
		"OS Y": "191601",
		"lat": "51.609262750488",
		"long": "-0.1889026706526",
		"Zone": "4"
	},
	{
		"Station": "West Ham",
		"OS X": "539202",
		"OS Y": "182974",
		"lat": "51.52852551818",
		"long": "0.0053318072586749",
		"Zone": "3"
	},
	{
		"Station": "West Hampstead",
		"OS X": "525524",
		"OS Y": "184726",
		"lat": "51.547474356007",
		"long": "-0.19111216622603",
		"Zone": "2"
	},
	{
		"Station": "West Hampstead Thameslink",
		"OS X": "525423",
		"OS Y": "184852",
		"lat": "51.548629145744",
		"long": "-0.19252310000093",
		"Zone": "2"
	},
	{
		"Station": "West Harrow",
		"OS X": "514163",
		"OS Y": "187957",
		"lat": "51.578924280955",
		"long": "-0.35383226807134",
		"Zone": "5"
	},
	{
		"Station": "West India Quay",
		"OS X": "537471",
		"OS Y": "180505",
		"lat": "51.506762659668",
		"long": "-0.020568040587805",
		"Zone": "2"
	},
	{
		"Station": "West Kensington",
		"OS X": "524635",
		"OS Y": "178321",
		"lat": "51.490109387233",
		"long": "-0.20618929345907",
		"Zone": "2"
	},
	{
		"Station": "West Norwood",
		"OS X": "531956",
		"OS Y": "171955",
		"lat": "51.431241127782",
		"long": "-0.10317475212492",
		"Zone": "3"
	},
	{
		"Station": "West Ruislip",
		"OS X": "508364",
		"OS Y": "186791",
		"lat": "51.569587924657",
		"long": "-0.43784571956141",
		"Zone": "6"
	},
	{
		"Station": "West Silvertown",
		"OS X": "540455",
		"OS Y": "180155",
		"lat": "51.502884431544",
		"long": "0.022260451989289",
		"Zone": "3"
	},
	{
		"Station": "West Sutton",
		"OS X": "525081",
		"OS Y": "164539",
		"lat": "51.366150159758",
		"long": "-0.20463018612991",
		"Zone": "5"
	},
	{
		"Station": "West Wickham",
		"OS X": "538266",
		"OS Y": "166563",
		"lat": "51.381284202527",
		"long": "-0.014561963270977",
		"Zone": "5"
	},
	{
		"Station": "Westbourne Park",
		"OS X": "524920",
		"OS Y": "181764",
		"lat": "51.520988865484",
		"long": "-0.20086810419124",
		"Zone": "2"
	},
	{
		"Station": "Westcombe Park",
		"OS X": "540199",
		"OS Y": "178103",
		"lat": "51.484508893293",
		"long": "0.017760099794534",
		"Zone": "3"
	},
	{
		"Station": "Westferry",
		"OS X": "537064",
		"OS Y": "180814",
		"lat": "51.509638150617",
		"long": "-0.026308729670621",
		"Zone": "2"
	},
	{
		"Station": "Westminster",
		"OS X": "530240",
		"OS Y": "179718",
		"lat": "51.501401606172",
		"long": "-0.12498767440679",
		"Zone": "1"
	},
	{
		"Station": "White City",
		"OS X": "523296",
		"OS Y": "180750",
		"lat": "51.512232464701",
		"long": "-0.22461752326457",
		"Zone": "2"
	},
	{
		"Station": "White Hart Lane",
		"OS X": "533693",
		"OS Y": "191340",
		"lat": "51.605034779059",
		"long": "-0.07085588920127",
		"Zone": "3"
	},
	{
		"Station": "Whitechapel",
		"OS X": "534738",
		"OS Y": "181859",
		"lat": "51.519587792346",
		"long": "-0.059406074587337",
		"Zone": "2"
	},
	{
		"Station": "Whitton",
		"OS X": "514220",
		"OS Y": "173568",
		"lat": "51.449588234079",
		"long": "-0.35766767257282",
		"Zone": "5"
	},
	{
		"Station": "Whyteleafe",
		"OS X": "533842",
		"OS Y": "158505",
		"lat": "51.309929327757",
		"long": "-0.081120820529126",
		"Zone": "6"
	},
	{
		"Station": "Whyteleafe South",
		"OS X": "534169",
		"OS Y": "157797",
		"lat": "51.30348981231",
		"long": "-0.076698171894698",
		"Zone": "6"
	},
	{
		"Station": "Willesden Green",
		"OS X": "523350",
		"OS Y": "184884",
		"lat": "51.549373313232",
		"long": "-0.22239318421442",
		"Zone": "2,3"
	},
	{
		"Station": "Willesden Junction",
		"OS X": "521905",
		"OS Y": "182942",
		"lat": "51.532233992929",
		"long": "-0.2438947288224",
		"Zone": "3"
	},
	{
		"Station": "Wimbledon",
		"OS X": "524791",
		"OS Y": "170647",
		"lat": "51.421107869794",
		"long": "-0.20664845638008",
		"Zone": "3"
	},
	{
		"Station": "Wimbledon Chase",
		"OS X": "524306",
		"OS Y": "169347",
		"lat": "51.409530957999",
		"long": "-0.21407539384331",
		"Zone": "3"
	},
	{
		"Station": "Wimbledon Park",
		"OS X": "525274",
		"OS Y": "172158",
		"lat": "51.434580976538",
		"long": "-0.19917189150183",
		"Zone": "3"
	},
	{
		"Station": "Winchmore Hill",
		"OS X": "531529",
		"OS Y": "194494",
		"lat": "51.633886871044",
		"long": "-0.10090248655044",
		"Zone": "4"
	},
	{
		"Station": "Wood Green",
		"OS X": "531038",
		"OS Y": "190427",
		"lat": "51.597453741251",
		"long": "-0.10951215426353",
		"Zone": "3"
	},
	{
		"Station": "Wood Street",
		"OS X": "538521",
		"OS Y": "189426",
		"lat": "51.586669943719",
		"long": "-0.0019394662016431",
		"Zone": "4"
	},
	{
		"Station": "Woodford",
		"OS X": "540952",
		"OS Y": "191778",
		"lat": "51.607201839663",
		"long": "0.034070640659794",
		"Zone": "4"
	},
	{
		"Station": "Woodgrange Park",
		"OS X": "541861",
		"OS Y": "185332",
		"lat": "51.549052529247",
		"long": "0.044586916011772",
		"Zone": "3,4"
	},
	{
		"Station": "Woodmansterne",
		"OS X": "528720",
		"OS Y": "159385",
		"lat": "51.319018597795",
		"long": "-0.154247780889",
		"Zone": "6"
	},
	{
		"Station": "Woodside Park",
		"OS X": "525725",
		"OS Y": "192564",
		"lat": "51.617868422141",
		"long": "-0.185411063095",
		"Zone": "4"
	},
	{
		"Station": "Woolwich Arsenal",
		"OS X": "543754",
		"OS Y": "178803",
		"lat": "51.489907107526",
		"long": "0.069208307647642",
		"Zone": "4"
	},
	{
		"Station": "Woolwich Dockyard",
		"OS X": "542738",
		"OS Y": "178908",
		"lat": "51.491107787563",
		"long": "0.054626749936269",
		"Zone": "3"
	},
	{
		"Station": "Worcester Park",
		"OS X": "522192",
		"OS Y": "166133",
		"lat": "51.381104516868",
		"long": "-0.24556092484593",
		"Zone": "4"
	}
]}